     3.03           OBSERVATION DATA    M: Mixed            RINEX VERSION / TYPE
Geo++ RINEX Logger  Geo++               20220311 071935 UTC PGM / RUN BY / DATE
************************************************************COMMENT
This file was generated by the Geo++ RINEX Logger App       COMMENT
for Android devices (Version 2.1.6). If you encounter       COMMENT
any issues, please send an email to android@geopp.de        COMMENT
Filtering Mode: BEST                                        COMMENT
************************************************************COMMENT
geo                                                         MARKER NAME
GEODETIC                                                    MARKER TYPE
Geo++               Geo++                                   OBSERVER / AGENCY
unknown             OnePlus             IN2011              REC # / TYPE / VERS
unknown             IN2011                                  ANT # / TYPE
  1501538.3244  6066640.8652  1272397.9402                  APPROX POSITION XYZ
        0.0000        0.0000        0.0000                  ANTENNA: DELTA H/E/N
G    8 C1C L1C D1C S1C C5Q L5Q D5Q S5Q                      SYS / # / OBS TYPES
R    4 C1C L1C D1C S1C                                      SYS / # / OBS TYPES
E   12 C1B L1B D1B S1B C1C L1C D1C S1C C5Q L5Q D5Q S5Q      SYS / # / OBS TYPES
C    4 C2I L2I D2I S2I                                      SYS / # / OBS TYPES
J    8 C1C L1C D1C S1C C5Q L5Q D5Q S5Q                      SYS / # / OBS TYPES
  2022     3    11     7    19   53.4377540     GPS         TIME OF FIRST OBS
 24 R01  1 R02 -4 R03  5 R04  6 R05  1 R06 -4 R07  5 R08  6 GLONASS SLOT / FRQ #
    R09 -2 R10 -5 R11  0 R12 -1 R13 -2 R14 -7 R15  0 R16 -1 GLONASS SLOT / FRQ #
    R17  4 R18 -3 R19  3 R20  2 R21  4 R22 -3 R23  3 R24  2 GLONASS SLOT / FRQ #
G L1C                                                       SYS / PHASE SHIFT
G L5Q -0.25000                                              SYS / PHASE SHIFT
R L1C                                                       SYS / PHASE SHIFT
E L1B                                                       SYS / PHASE SHIFT
E L1C +0.50000                                              SYS / PHASE SHIFT
E L5Q -0.25000                                              SYS / PHASE SHIFT
C L2I                                                       SYS / PHASE SHIFT
J L1C                                                       SYS / PHASE SHIFT
J L5Q -0.25000                                              SYS / PHASE SHIFT
 C1C    0.000 C1P    0.000 C2C    0.000 C2P    0.000        GLONASS COD/PHS/BIS
                                                            END OF HEADER
> 2022  3 11  7 19 53.4377540  3  1
geo                                                         MARKER NAME
> 2022  3 11  7 19 53.4377540  0 22
C07  38165262.541                        -333.455          32.900  
C08  39044152.698                        1667.300          23.500  
C10  37730600.951                        -364.864          30.100  
C13  38986822.487                        1461.750          23.800  
C21  25259649.311                       -1779.800          21.400  
C26  22892738.390                        1264.661          35.400  
C35  22522220.694                       -1692.550          22.800  
E03                                                                  25441337.032                         245.950          21.300  
E11                                                                                                                                  23245536.253                         375.850          23.900  
E25                                                                  25642111.638                         107.800          26.800  
E36                                                                  25231561.156                        2397.550          23.900    25229656.275                        1791.150          23.400  
G01  22183799.078                         -59.020          32.500    22181456.200                         -44.104          31.700  
G07  20615688.159                         574.400          27.200  
G14  22392082.586                         -24.100          23.700    22389742.706                         -22.815          25.700  
G21  24421097.129                       -2303.800          22.200  
G30  21049410.199                        1638.550          22.300    21047040.340                        1225.059          27.000  
J02  41149415.855                        1392.600          26.300    41147062.484                        1037.015          28.800  
J03  41868661.132                        -664.450          28.000    41866314.956                        -498.152          29.400  
R12  22023753.975                         468.250          26.900  
R13  22263966.280                        1562.600          26.700  
R22  22780425.043                       -3578.900          26.000  
R23  19452266.479                         423.000          23.000  
> 2022  3 11  7 19 54.4377540  0 33
C01  40338108.541                           5.700          33.500  
C07  38165326.726                        -329.861          37.900  
C08  39043842.443                        1673.050          27.500  
C09  36276246.909                        -513.150          25.800  
C10  37730675.030                        -361.641          37.200  
C12  23051875.451                        2577.900          22.100  
C13  38986544.010                        1462.599          31.500  
C16  37559516.320                        -958.600          24.300  
C21  25259997.400                       -1786.500          23.000  
C24  25730482.690                        1859.700          20.000  
C26  22892495.887                        1267.854          40.300  
C35  22522543.000                       -1688.928          30.400  
E03                                                                  25441296.289                         247.450          27.800  
E11                                                                  23247360.220                         507.177          30.700    23245440.649                         378.456          27.600  
E25                                                                  25642101.475                         110.258          33.500  
E36                                                                  25231108.799                        2399.750          24.400  
G01  22183817.095                         -56.358          39.000    22181465.224                         -42.006          35.300  
G07  20615588.058                         576.556          31.200  
G13  24063131.773                        2719.900          20.000  
G14  22392097.306                         -27.400          27.600    22389749.331                         -20.192          26.200  
G17  20403276.238                         482.100          16.600  
G19  21896818.880                        2300.850          20.100  
G21  24421491.086                       -2305.100          24.500  
G30  21049080.457                        1643.054          35.100    21046730.384                        1227.686          33.500  
J02  41149138.277                        1394.750          36.900    41146797.197                        1038.429          35.000  
J03  41868784.976                        -663.725          36.000    41866441.498                        -495.352          36.200  
R02  21878504.559                       -2678.500          20.100  
R03  22355376.627                        -406.250          19.000  
R12  22023694.946                         473.290          38.200  
R13  22263687.502                        1565.314          33.000  
R22  22781047.142                       -3577.184          30.800  
R23  19452166.378                         432.200          21.800  
R24  20743270.565                        3446.500          19.700  
> 2022  3 11  7 19 55.4377540  0 31
C01  40338099.844                          18.671          38.300  
C03  36922388.692                          58.550          24.100  
C07  38165388.781                        -327.736          39.800  
C08  39043523.161                        1675.762          36.600  
C09  36276349.735                        -508.950          27.400  
C10  37730746.677                        -359.041          37.200  
C12  23051392.782                        2582.150          27.500  
C13  38986258.604                        1467.321          35.300  
C16  37559691.096                        -954.403          30.700  
C21  25260348.454                       -1778.450          27.900  
C24  25730138.525                        1859.800          27.600  
C26  22890373.054                        1270.453          32.900  
C35  22522866.174                       -1686.627          31.100  
E03                                                                  25441246.521                         251.321          30.400    25439333.845                         187.800          24.700  
E11                                                                  23247259.786                         508.360          36.700    23245348.909                         379.654          28.100  
E25                                                                  25642079.587                         114.450          27.300    25640163.913                          84.700          25.700  
E36                                                                  25230653.112                        2401.350          22.500    25228740.436                        1794.050          23.600  
G01  22183825.487                         -54.476          40.000    22181474.814                         -40.881          36.300  
G07  20615476.532                         577.800          26.100  
G14  22392122.486                         -24.200          23.200    22389754.425                         -18.560          26.000  
G17  20403193.493                         479.902          28.700  
G30  21048773.167                        1645.893          37.700    21046417.997                        1228.838          34.400  
J02  41148872.358                        1394.439          39.000    41146531.878                        1041.244          36.200  
J03  41868908.487                        -661.444          40.000    41866567.108                        -493.999          37.900  
R02  21879027.994                       -2669.750          24.300  
R03  22355416.796                        -400.550          26.000  
R12  22023607.403                         475.431          33.700  
R13  22263361.325                        1568.224          31.000  
R22  22781748.353                       -3573.900          27.300  
R23  19452040.462                         430.200          28.700  
R24  20742697.659                        3447.900          22.800  
> 2022  3 11  7 19 56.4377540  0 30
C01  40338094.974                          26.100          37.700  
C07  38165452.563                        -324.055          40.500  
C08  39043201.410                        1678.858          37.900  
C09  36276453.690                        -504.500          25.000  
C10  37730817.654                        -355.714          34.000  
C12  23050894.454                        2582.850          28.400  
C13  38985978.225                        1470.375          37.400  
C16  37559879.592                        -951.348          30.300  
C21  25260684.448                       -1774.476          29.300  
C24  25727900.801                        1863.379          26.800  
C26  22890128.050                        1273.591          32.100  
C35  22521321.270                       -1684.323          24.800  
E03                                                                  25441200.879                         253.864          31.700    25439286.105                         190.200          25.700  
E05                                                                  24680049.113                       -1872.150          23.900  
E11                                                                  23247164.079                         511.282          36.700    23245251.103                         381.767          27.500  
E25                                                                  25642050.733                         116.972          29.400    25640144.353                          86.500          23.800  
G01  22183833.507                         -51.612          39.500    22181483.434                         -38.533          33.200  
G07  20615347.548                         581.200          24.700  
G13  24062043.450                        2721.200          21.500  
G14  22392120.613                         -16.600          25.000    22389760.647                         -15.944          26.200  
G17  20403099.284                         482.874          29.000  
G21  24422358.609                       -2299.650          20.600  
G30  21048455.613                        1648.992          37.500    21046103.741                        1231.379          34.400  
J02  41148608.767                        1398.051          37.400    41146265.889                        1043.920          36.000  
J03  41869034.626                        -657.830          38.900    41866693.247                        -491.302          36.200  
R02  21879537.267                       -2671.800          27.100  
R03  22355502.464                        -401.450          21.900  
R12  22023519.191                         479.317          33.100  
R13  22263081.545                        1571.887          31.800  
R23  19451958.545                         431.400          28.200  
> 2022  3 11  7 19 57.4377540  0 30
C01  40338089.041                          25.347          37.400  
C07  38165513.484                        -320.590          39.900  
C08  39042879.796                        1682.400          38.600  
C09  36276539.793                        -507.250          23.800  
C10  37730885.771                        -352.078          34.300  
C12  23050397.461                        2589.750          28.500  
C13  38985696.183                        1473.789          37.300  
C16  37560064.628                        -949.050          29.000  
C21  25261030.172                       -1770.600          28.200  
C24  25727540.214                        1867.424          25.100  
C26  22889883.782                        1277.026          33.100  
C35  22523508.019                       -1680.335          30.200  
E03                                                                  25441150.877                         257.085          31.500    25439236.103                         192.003          26.900  
E05                                                                  24680419.121                       -1870.300          24.600  
E11                                                                  23247066.410                         514.508          36.600    23245154.933                         384.345          27.000  
E25                                                                  25642025.315                         120.613          31.200    25640120.733                          90.550          23.200  
G01  22183845.263                         -48.905          39.500    22181493.391                         -36.542          32.800  
G07  20615260.971                         582.200          25.600  
G14                                                                  22389764.608                         -12.850          23.000  
G17  20403004.913                         485.580          30.300  
G21  24422808.061                       -2301.000          22.800  
G30  21048143.892                        1652.100          37.900    21045789.323                        1233.660          34.800  
J02  41148341.715                        1401.411          37.700    41145999.736                        1046.558          36.400  
J03  41869159.703                        -654.426          39.100    41866819.823                        -488.650          36.900  
R02  21880080.555                       -2668.500          25.800  
R03  22355560.986                        -397.250          22.600  
R12  22023426.019                         482.483          32.500  
R13  22262788.412                        1575.465          32.300  
R23  19451923.233                         438.250          26.300  
R24  20741346.484                        3453.150          21.300  
> 2022  3 11  7 19 58.4377540  0 33
C01  40338085.124                          28.491          37.600  
C03  36922373.372                          33.800          25.600  
C07  38165574.921                        -317.216          39.800  
C08  39042559.897                        1685.618          36.900  
C09  36276638.705                        -500.650          24.300  
C10  37730950.206                        -348.788          34.700  
C12  23049898.886                        2590.900          26.800  
C13  38985410.461                        1477.311          36.700  
C14  25853761.812                        -279.850          16.800  
C16  37560244.483                        -943.050          29.100  
C21  25261360.223                       -1767.429          29.600  
C24  25729046.351                        1868.650          29.000  
C26  22889637.933                        1280.324          33.800  
C35  22523835.972                       -1677.910          31.800  
E03                                                                  25441107.687                         260.049          31.300    25439188.715                         194.109          25.900  
E05                                                                  24680778.252                       -1868.100          23.000  
E11                                                                  23246965.060                         517.431          35.700    23245055.082                         386.361          26.500  
E25                                                                  25642010.605                         124.041          31.900    25640097.029                          92.500          23.000  
E36                                                                  25229272.837                        2414.000          21.000  
G01  22183850.939                         -46.075          39.800    22181502.664                         -34.358          34.500  
G07  20615143.732                         584.800          25.000  
G13  24061037.090                        2724.750          19.700  
G14                                                                  22389765.787                         -10.614          25.000  
G17  20402917.353                         488.403          28.900  
G30  21047826.992                        1655.068          37.600    21045475.120                        1235.895          34.500  
J02  41148073.681                        1404.906          37.800    41145732.301                        1049.144          35.500  
J03  41869284.397                        -651.088          39.000    41866943.317                        -486.255          36.500  
R02  21880534.420                       -2666.550          25.600  
R03  22355666.793                        -391.150          25.600  
R12  22023354.048                         486.047          33.800  
R13  22262499.092                        1579.088          32.500  
R23  19451806.893                         435.100          26.700  
R24  20740692.017                        3454.650          26.300  
> 2022  3 11  7 19 59.4377540  0 30
C01  40338079.049                          29.856          39.000  
C07  38165633.902                        -315.652          40.600  
C08  39042234.544                        1687.031          38.100  
C09  36276745.952                        -497.100          22.500  
C10  37731017.581                        -347.256          35.800  
C12  23049404.750                        2587.450          27.600  
C13  38985127.079                        1478.507          36.200  
C16  37560427.278                        -943.697          29.400  
C21  25261699.210                       -1765.919          29.700  
C24  25728699.113                        1872.441          29.900  
C26  22891269.324                        1281.705          39.300  
C35  22524156.971                       -1676.942          32.500  
E03                                                                  25441049.149                         260.886          31.800    25439140.670                         194.998          26.700  
E05                                                                  24681131.629                       -1866.400          24.400  
E11                                                                  23246869.048                         518.363          35.600    23244957.871                         387.090          28.200  
E25                                                                  25641981.746                         125.592          31.600    25640072.967                          94.150          24.800  
G01  22183862.552                         -45.327          40.800    22181512.179                         -33.871          34.200  
G07  20615023.137                         589.200          26.400  
G13  24060490.789                        2733.000          22.000  
G14                                                                  22389769.006                          -9.501          26.900  
G17  20402811.748                         491.450          27.100  
G21  24423676.461                       -2301.400          20.500  
G30  21047513.330                        1656.135          38.300    21045159.360                        1236.824          35.500  
J02  41147808.286                        1406.253          38.600    41145464.508                        1050.182          35.800  
J03  41869408.132                        -649.660          39.000    41867065.854                        -485.079          36.700  
R03  22355728.472                        -391.100          24.500  
R12  22023238.250                         487.309          34.200  
R13  22262198.621                        1580.675          32.400  
R23  19451735.464                         435.300          26.500  
R24  20740073.766                        3457.650          25.200  
> 2022  3 11  7 20  0.4377540  0 34
C01  40338074.878                          20.642          38.700  
C02  35928524.746                          21.000          31.800  
C06  37645736.245                        -922.600          26.000  
C07  38165695.385                        -325.172          40.300  
C08  39041911.093                        1677.524          39.400  
C09  36276839.213                        -506.300          23.800  
C10  37731082.961                        -356.720          35.900  
C12  23048905.921                        2582.150          28.600  
C13  38984844.400                        1469.144          37.000  
C16  37560604.481                        -953.194          30.700  
C21  25262044.896                       -1775.150          29.100  
C24  25728334.890                        1862.650          29.100  
C26  22891026.518                        1272.082          38.100  
C35  22522610.667                       -1687.310          27.000  
E03                                                                  25441002.706                         250.916          31.400    25439091.529                         187.082          27.800  
E05                                                                  24681492.904                       -1875.250          25.100  
E11                                                                  23246771.341                         508.217          35.500    23244858.965                         379.291          28.400  
E25                                                                  25641961.386                         116.008          30.000    25640049.009                          86.250          23.200  
G01  22183867.374                         -55.475          40.300    22181521.198                         -41.344          33.700  
G07  20614935.024                         577.750          26.600  
G09                                                                  22832490.842                       -2331.677          23.900  
G13  24059951.188                        2719.450          21.900  
G14                                                                  22389774.428                         -16.933          26.100  
G17  20402720.936                         479.200          28.000  
G21  24424120.479                       -2305.200          22.000  
G30  21047197.375                        1646.286          38.000    21044845.503                        1229.373          35.300  
J02  41147545.993                        1396.598          39.400    41145197.718                        1043.007          35.700  
J03  41869536.169                        -659.253          39.300    41867191.493                        -492.168          37.000  
R02  21881515.588                       -2671.000          20.100  
R03  22355845.416                        -403.800          25.400  
R12  22023167.824                         477.393          33.900  
R13  22261907.848                        1570.967          32.700  
R22  22785001.018                       -3573.800          17.300  
R23  19451656.045                         427.700          28.400  
> 2022  3 11  7 24 46.4377551  0 30
C06  37698075.079                        -953.350          21.700  
C07  38183256.495                        -281.700          28.700  
C08  38950113.311                        1698.092          33.400  
C09  36306636.652                        -543.850          24.600  
C10  37750423.939                        -314.182          33.300  
C12  22910199.612                        2487.700          20.700  
C13  38904181.209                        1502.400          25.900  
C21  25358920.598                       -1729.300          18.000  
C24  25623386.412                        1923.075          27.700  
C26  22819904.522                        1281.794          24.300  
C35  22621052.484                       -1794.250          29.000  
E03                                                                  25430898.069                         154.100          23.400  
E05                                                                  24785634.975                       -1915.100          20.700    24783707.609                       -1430.904          25.800  
E11                                                                  23222798.005                         404.700          21.000    23220875.436                         303.286          29.100  
E25                                                                  25634998.873                         173.208          31.600    25633092.493                         129.291          29.900  
E36                                                                  25099045.206                        2379.650          26.200  
G01  22191875.597                        -205.732          31.800    22189529.721                        -153.772          34.700  
G07  20587542.554                         459.890          29.900  
G09  23006113.412                       -3133.050          26.100  
G14                                                                  22391078.392                           6.318          24.800  
G17  20381753.319                         323.900          24.400  
G19  21772915.338                        2184.950          20.900  
G30  20960544.330                        1570.266          33.200    20958193.358                        1172.454          34.200  
J02  41071512.197                        1430.311          28.700    41069169.319                        1068.120          30.000  
J03  41905835.807                        -640.700          23.900    41903505.520                        -479.267          34.600  
R12  21998519.955                         475.591          35.100  
R13  22176836.809                        1638.700          28.900  
R22  22980564.200                       -3686.500          27.100  
R23  19436217.800                         186.150          26.300  
R24  20559264.031                        3323.350          24.600  
> 2022  3 11  7 24 47.4377551  0 29
C03  36921202.485                          64.850          25.300  
C06  37698259.140                        -952.550          21.600  
C07  38183306.249                        -282.800          29.000  
C08  38949788.924                        1696.301          33.900  
C09  36306730.475                        -543.550          27.600  
C10  37750486.284                        -315.763          33.700  
C13  38903893.097                        1500.150          27.300  
C24  25624909.047                        1921.872          30.200  
C26  22819656.283                        1279.498          26.000  
C35  22621397.534                       -1796.501          29.700  
E03                                                                  25430875.873                         150.150          24.600    25428976.388                         111.950          24.100  
E05                                                                                                                                  24784070.347                       -1432.559          25.100  
E11                                                                  23222712.253                         404.000          23.600    23220800.776                         301.339          28.800  
E25                                                                  25634969.182                         171.875          32.100    25633061.003                         128.193          31.900  
E36                                                                  25098601.202                        2377.350          25.000  
G01  22191919.056                        -208.179          33.000    22189568.683                        -155.446          34.800  
G07  20587448.408                         457.637          31.600  
G09  23006710.288                       -3135.450          27.500  
G14                                                                  22391075.383                           4.500          22.600  
G17  20381683.156                         324.600          23.900  
G19  21772506.709                        2182.550          21.200  
G30  20960244.227                        1568.182          34.100    20957893.854                        1171.071          34.100  
J02  41071226.783                        1428.685          30.800    41068899.494                        1066.920          31.400  
J03  41905959.310                        -643.250          25.900    41903627.524                        -480.329          35.400  
R12  21998422.511                         473.636          36.800  
R13  22176546.898                        1635.903          30.300  
R22  22981247.116                       -3687.754          29.400  
R23  19436138.643                         183.000          25.300  
R24  20558621.564                        3317.850          25.000  
> 2022  3 11  7 24 48.4377551  0 32
C01  40337435.358                          11.500          32.100  
C02  35928306.434                          40.800          25.900  
C07  38183360.892                        -286.578          30.500  
C08  38949464.330                        1692.575          33.800  
C09  36306843.578                        -546.950          27.400  
C10  37750540.927                        -319.551          34.400  
C12  22909271.824                        2494.600          22.200  
C13  38903604.178                        1493.600          27.800  
C16  37614799.399                        -972.550          20.800  
C24  25622648.692                        1918.112          27.500  
C26  22819412.932                        1275.914          26.400  
C35  22621738.779                       -1801.430          31.000  
E03                                                                  25430843.277                         146.850          22.500    25428953.085                         110.050          24.100  
E05                                                                                                                                  24784437.674                       -1435.381          25.700  
E11                                                                  23222641.283                         398.850          26.100    23220723.810                         298.173          29.900  
E25                                                                  25634938.384                         167.954          33.000    25633029.006                         125.548          31.000  
E36                                                                  25098142.001                        2373.900          26.000    25096239.218                        1772.800          22.500  
G01  22191962.007                        -212.716          33.200    22189609.536                        -158.751          35.300  
G07  20587358.551                         453.250          31.400  
G09  23007304.558                       -3139.650          27.400  
G14  22393428.235                           9.150          23.600    22391075.764                           1.600          23.600  
G17  20381636.769                         317.350          25.000  
G30  20959957.706                        1563.952          34.100    20957596.541                        1167.959          34.300  
J02  41070963.047                        1424.974          31.500    41068626.764                        1064.077          31.400  
J03  41906097.595                        -646.850          27.100    41903750.820                        -483.302          35.200  
R02  22027390.938                       -2696.000          18.300  
R03  22382450.135                        -558.950          17.100  
R12  21998341.948                         469.655          37.300  
R13  22176255.881                        1632.105          30.200  
R22  22981948.411                       -3694.400          28.200  
R23  19436112.342                         174.300          25.400  
R24  20557960.603                        3315.300          23.400  
> 2022  3 11  7 24 49.4377551  0 30
C07  38183412.929                        -291.517          30.500  
C08  38949135.031                        1687.506          34.100  
C09  36306946.879                        -556.250          26.100  
C10  37750604.356                        -324.385          34.300  
C12  22908771.943                        2487.300          22.700  
C13  38903319.548                        1487.350          26.900  
C14  25872110.067                        -343.450          17.300  
C24  25622281.020                        1913.378          27.200  
C26  22821050.571                        1270.940          36.800  
C35  22622083.113                       -1806.757          31.400  
E03                                                                  25430830.858                         141.900          24.000    25428920.281                         106.250          24.100  
E05                                                                                                                                  24784801.794                       -1439.245          24.300  
E11                                                                  23222559.013                         394.200          25.000    23220647.536                         294.021          30.200  
E25                                                                  25634905.280                         163.196          32.800    25632998.000                         121.836          31.900  
E36                                                                  25097689.787                        2368.650          25.700    25095789.402                        1768.850          23.000  
G01  22191995.757                        -218.241          32.700    22189650.780                        -163.036          35.500  
G07  20587285.275                         447.837          31.200  
G09  23007872.837                       -3145.950          26.100  
G13  23913917.895                        2621.350          18.200  
G14  22393429.607                          -0.550          22.400    22391073.538                          -0.950          23.700  
G17  20381572.487                         312.650          25.100  
G19  21771681.334                        2178.800          19.600  
G30  20959655.988                        1558.624          33.500    20957299.619                        1163.882          34.600  
J02  41070684.113                        1419.782          31.200    41068356.824                        1060.268          31.200  
J03  41906218.584                        -653.050          28.100    41903874.207                        -486.978          35.200  
R03  22382481.186                        -563.650          22.200  
R12  21998250.084                         464.427          37.000  
R13  22175951.164                        1627.279          30.800  
R22  22982653.096                       -3698.550          28.800  
R23  19436066.047                         172.050          26.000  
> 2022  3 11  7 24 50.4377551  0 30
C01  40337419.140                          23.800          31.100  
C03  36921192.644                          32.800          27.400  
C06  37698817.106                        -954.150          19.000  
C07  38183481.979                        -294.000          30.000  
C08  38948814.051                        1684.953          33.900  
C09  36307053.404                        -553.950          25.600  
C10  37750668.610                        -326.850          34.300  
C13  38903039.640                        1490.950          24.100  
C16  37615199.593                        -992.450          21.100  
C24  25621913.872                        1911.014          29.300  
C26  22818923.642                        1268.439          26.000  
C35  22622437.566                       -1809.679          31.300  
E03                                                                  25430803.975                         138.300          23.700    25428897.295                         103.668          24.400  
E05                                                                                                                                  24785170.338                       -1441.043          25.700  
E11                                                                  23222482.064                         391.600          24.800    23220573.585                         292.157          30.400  
E25                                                                  25634870.302                         160.678          32.800    25632966.321                         119.917          30.800  
E36                                                                  25097234.200                        2366.700          25.800  
G01  22192054.614                        -221.496          32.700    22189691.950                        -165.404          35.300  
G07  20587197.833                         444.809          31.200  
G09  23008484.811                       -3146.750          25.900  
G14  22393439.898                          -1.550          24.700    22391078.133                          -3.343          25.100  
G17  20381539.907                         311.550          25.800  
G19  21771251.230                        2176.200          23.000  
G30  20959348.199                        1555.689          33.400    20957003.222                        1161.669          34.400  
J02  41070425.190                        1417.433          30.100    41068085.610                        1058.591          31.100  
J03  41906339.799                        -655.100          28.000    41903998.419                        -488.999          35.800  
R12  21998169.838                         461.881          36.900  
R13  22175656.866                        1624.836          30.800  
R22  22983339.419                       -3702.150          28.700  
R23  19436017.279                         168.800          25.200  
> 2022  3 11  7 24 51.4377551  0 26
C02  35928280.125                          19.950          26.800  
C07  38183533.046                        -295.850          28.800  
C08  38948487.979                        1683.755          34.300  
C09  36307151.538                        -561.750          27.100  
C10  37750735.866                        -328.030          34.300  
C13  38902750.143                        1485.700          26.000  
C24  25623435.421                        1908.900          27.900  
C26  22818679.713                        1267.235          25.400  
C35  22622773.736                       -1811.265          30.700  
E03                                                                  25430773.198                         137.800          22.400    25428868.617                         102.522          24.800  
E05                                                                                                                                  24785538.585                       -1442.341          26.300  
E11                                                                  23222412.914                         389.550          25.300    23220500.238                         290.735          29.100  
E25                                                                  25634841.025                         159.574          32.300    25632935.544                         119.191          31.800  
E36                                                                  25096792.108                        2363.550          26.500    25094889.026                        1765.450          24.400  
G01  22192081.997                        -223.137          32.000    22189734.922                        -166.787          35.300  
G07  20587111.595                         442.964          31.100  
G09  23009101.587                       -3148.950          22.400  
G14  22393459.787                          -3.850          25.700    22391077.935                          -4.313          24.200  
G17  20381476.753                         307.050          26.000  
G30  20959050.607                        1554.066          34.000    20956707.429                        1160.554          34.200  
J02  41070157.278                        1416.316          29.400    41067816.498                        1057.551          30.800  
J03  41906478.705                        -658.100          26.900    41904122.935                        -489.951          35.100  
R12  21998089.895                         460.421          36.700  
R13  22175323.899                        1623.626          29.900  
R22  22984030.243                       -3703.300          27.700  
R23  19436014.383                         164.200          24.600  
> 2022  3 11  7 24 52.4377551  0 29
C01  40337414.991                           4.150          30.400  
C07  38183584.557                        -294.586          29.500  
C08  38948165.349                        1684.073          33.900  
C09  36307275.299                        -558.850          27.400  
C10  37750795.770                        -327.611          34.100  
C13  38902456.292                        1484.550          25.800  
C21  25360896.319                       -1729.050          18.700  
C24  25621179.129                        1910.233          29.500  
C26  22820320.124                        1267.402          36.900  
C35  22623124.739                       -1811.394          31.000  
E03                                                                  25430749.461                         136.200          26.300    25428837.984                         102.357          24.600  
E05                                                                                                                                  24785906.077                       -1442.329          25.800  
E11                                                                  23222342.409                         388.700          25.300    23220424.937                         290.684          30.200  
E25                                                                  25634812.791                         159.956          32.600    25632905.811                         119.411          31.000  
E36                                                                  25096342.666                        2364.900          26.100    25094436.286                        1767.350          23.200  
G01  22192133.508                        -223.469          30.600    22189777.139                        -167.008          35.400  
G07  20587031.797                         442.879          32.000  
G09  23009666.042                       -3144.650          22.600  
G14  22393448.341                          -7.000          25.300    22391075.483                          -4.500          23.000  
G17  20381423.337                         305.850          24.500  
G30  20958754.658                        1554.092          34.400    20956411.780                        1160.497          34.700  
J02  41069888.011                        1416.636          30.300    41067546.332                        1057.974          31.600  
J03  41906597.669                        -656.050          26.800    41904247.895                        -489.697          35.000  
R03  22382815.302                        -568.350          19.000  
R12  21997986.413                         460.694          36.100  
R13  22175027.051                        1624.275          30.700  
R22  22984726.607                       -3704.750          28.900  
R23  19435984.051                         162.900          23.900  
R24  20555441.766                        3310.650          18.200  
> 2022  3 11  7 24 53.4377551  0 29
C03  36921174.400                          45.800          26.400  
C07  38183645.709                        -295.622          29.600  
C08  38947840.968                        1683.024          34.300  
C09  36307369.428                        -558.850          26.200  
C10  37750860.221                        -328.581          34.500  
C13  38902185.275                        1484.550          27.400  
C14  25872392.912                        -353.650          19.100  
C24  25620812.478                        1909.457          29.900  
C26  22820077.286                        1266.161          37.200  
C35  22623473.992                       -1813.138          30.900  
E03                                                                  25430721.575                         135.850          25.300    25428817.293                         100.550          23.600  
E05                                                                                                                                  24786278.114                       -1443.236          25.900  
E11                                                                  23222269.255                         387.350          24.300    23220350.883                         289.455          29.600  
E25                                                                  25634782.207                         158.968          32.700    25632875.827                         118.701          31.800  
E36                                                                  25095887.876                        2363.600          25.600    25093988.990                        1764.700          23.300  
G01  22192165.881                        -225.348          31.000    22189820.005                        -168.214          35.500  
G07  20586938.856                         441.240          31.900  
G09  23010282.410                       -3151.100          23.700  
G14  22393435.444                          -3.800          24.800    22391076.677                          -3.600          22.500  
G17  20381381.361                         305.750          25.700  
G19  21770026.921                        2166.350          20.900  
G30  20958470.150                        1552.623          34.400    20956115.281                        1159.376          34.000  
J02  41069626.586                        1415.488          31.200    41067277.113                        1057.062          31.400  
J03  41906711.585                        -656.950          27.400    41904372.904                        -490.451          35.700  
R12  21997910.261                         459.404          36.000  
R13  22174742.542                        1623.060          31.000  
R22  22985413.427                       -3707.200          28.200  
R23  19435934.580                         166.250          23.100  
R24  20554796.907                        3307.400          22.200  
