     3.03           OBSERVATION DATA    M: Mixed            RINEX VERSION / TYPE
Geo++ RINEX Logger  Geo++               20220311 074045 UTC PGM / RUN BY / DATE
************************************************************COMMENT
This file was generated by the Geo++ RINEX Logger App       COMMENT
for Android devices (Version 2.1.6). If you encounter       COMMENT
any issues, please send an email to android@geopp.de        COMMENT
Filtering Mode: BEST                                        COMMENT
************************************************************COMMENT
geo                                                         MARKER NAME
GEODETIC                                                    MARKER TYPE
Geo++               Geo++                                   OBSERVER / AGENCY
unknown             OnePlus             IN2011              REC # / TYPE / VERS
unknown             IN2011                                  ANT # / TYPE
  1501537.4109  6066640.6381  1272397.5270                  APPROX POSITION XYZ
        0.0000        0.0000        0.0000                  ANTENNA: DELTA H/E/N
G    8 C1C L1C D1C S1C C5Q L5Q D5Q S5Q                      SYS / # / OBS TYPES
R    4 C1C L1C D1C S1C                                      SYS / # / OBS TYPES
E   12 C1B L1B D1B S1B C1C L1C D1C S1C C5Q L5Q D5Q S5Q      SYS / # / OBS TYPES
C    4 C2I L2I D2I S2I                                      SYS / # / OBS TYPES
J    8 C1C L1C D1C S1C C5Q L5Q D5Q S5Q                      SYS / # / OBS TYPES
  2022     3    11     7    41    3.4377568     GPS         TIME OF FIRST OBS
 24 R01  1 R02 -4 R03  5 R04  6 R05  1 R06 -4 R07  5 R08  6 GLONASS SLOT / FRQ #
    R09 -2 R10 -5 R11  0 R12 -1 R13 -2 R14 -7 R15  0 R16 -1 GLONASS SLOT / FRQ #
    R17  4 R18 -3 R19  3 R20  2 R21  4 R22 -3 R23  3 R24  2 GLONASS SLOT / FRQ #
G L1C                                                       SYS / PHASE SHIFT
G L5Q -0.25000                                              SYS / PHASE SHIFT
R L1C                                                       SYS / PHASE SHIFT
E L1B                                                       SYS / PHASE SHIFT
E L1C +0.50000                                              SYS / PHASE SHIFT
E L5Q -0.25000                                              SYS / PHASE SHIFT
C L2I                                                       SYS / PHASE SHIFT
J L1C                                                       SYS / PHASE SHIFT
J L5Q -0.25000                                              SYS / PHASE SHIFT
 C1C    0.000 C1P    0.000 C2C    0.000 C2P    0.000        GLONASS COD/PHS/BIS
                                                            END OF HEADER
> 2022  3 11  7 41  3.4377568  3  1
geo                                                         MARKER NAME
> 2022  3 11  7 41  3.4377568  0 33
C05  36238496.492                          22.050          27.600  
C06  37890518.121                       -1083.300          26.800  
C07  38231001.409                        -204.675          42.500  
C08  38635469.102                        1673.569          35.500  
C09  36428161.689                        -729.900          24.900  
C10  37804638.974                        -240.266          41.700  
C13  38622873.921                        1516.066          33.800  
C16  37812160.766                       -1115.150          25.900  
C24  25253334.861                        2039.599          27.400  
C26  22590097.681                        1200.709          42.100  
C34  25032103.016                        2945.850          24.100  
C35  22998760.070                       -2197.797          30.700  
E02                                                                  27080374.128                         633.250          23.300  
E03                                                                  25441618.615                        -241.666          31.300    25439710.136                        -180.505          26.100  
E11                                                                  23190497.134                         -40.039          31.000  
E25                                                                  25593846.929                         291.508          38.400    25591943.847                         217.689          34.800  
E36                                                                  24677134.656                        2169.229          30.000    24675224.978                        1620.600          24.000  
G01  22288633.881                        -815.969          37.800    22286278.711                        -609.230          32.700  
G06  23680154.451                        3239.050          23.000  
G07  20551948.163                         -67.450          25.900  
G09  23597161.706                       -3187.100          27.600  
G13  23468806.164                        2187.942          29.900  
G14  22390234.444                          52.297          41.300    22387885.870                          39.044          31.200  
G17  20377983.696                        -255.228          31.500  
G19  21413371.512                        1695.400          20.300  
G30  20705924.268                        1177.069          40.400    20703570.597                         879.035          31.700  
J02  40804733.452                        1459.574          40.600    40802390.873                        1090.079          29.700  
J03  42028373.543                        -652.389          43.000    42026030.365                        -487.208          35.900  
R02  22529252.104                       -2751.900          27.100  
R12  21925488.081                         330.356          34.800  
R13  21868148.876                        1747.750          25.600  
R23  19488392.447                        -732.067          32.900  
R24  20007059.482                        2720.500          27.900  
> 2022  3 11  7 41  4.4377568  0 31
C01  40335217.760                          -1.800          31.900  
C06  37890728.345                       -1082.150          26.800  
C07  38231041.651                        -202.627          42.000  
C08  38635150.192                        1675.471          35.000  
C09  36428320.649                        -726.950          24.900  
C10  37804684.612                        -238.247          40.800  
C13  38622579.894                        1518.026          32.600  
C16  37812388.378                       -1107.750          24.700  
C24  25254825.798                        2041.479          35.000  
C26  22587982.116                        1202.554          23.000  
C34  25031561.661                        2949.800          23.900  
C35  22999186.744                       -2196.153          29.700  
E02                                                                                                                                  27078354.495                         473.900          23.600  
E03                                                                  25441663.353                        -240.338          31.200    25439753.975                        -179.424          26.700  
E11                                                                  23190509.495                         -38.650          30.600  
E25                                                                  25593791.237                         293.538          36.200    25591887.255                         219.167          33.800  
E36                                                                  24676721.311                        2170.850          28.400  
G01  22288784.146                        -814.588          37.000    22286433.174                        -608.380          31.600  
G07  20551985.407                         -63.181          29.000  
G09  23597777.848                       -3183.418          28.600  
G13  23468368.836                        2189.791          29.500  
G14  22390222.821                          54.339          40.800    22387875.446                          40.515          29.500  
G17  20378008.349                        -253.713          32.000  
G19  21413104.766                        1696.150          21.900  
G30  20705696.795                        1178.572          39.200    20703346.721                         880.044          31.500  
J02  40804455.613                        1461.581          39.300    40802115.134                        1091.371          29.000  
J03  42028496.827                        -650.443          41.900    42026153.350                        -485.791          35.400  
R02  22529801.393                       -2755.250          22.000  
R12  21925403.909                         332.163          33.000  
R13  21867798.488                        1752.250          27.400  
R23  19488531.021                        -730.971          32.100  
> 2022  3 11  7 41  5.4377569  0 30
C06  37890967.146                       -1073.400          25.800  
C07  38231111.369                        -198.257          40.300  
C08  38634856.862                        1679.784          34.200  
C10  37804760.626                        -233.853          39.300  
C13  38622320.741                        1520.950          29.000  
C16  37812627.780                       -1101.750          27.000  
C24  25254468.912                        2046.019          34.900  
C26  22589666.816                        1206.867          39.000  
C34  25030998.517                        2943.650          23.400  
C35  22997759.599                       -2191.867          22.200  
E03                                                                  25441743.864                        -236.236          29.600    25439829.390                        -176.361          25.900  
E05                                                                  25161478.988                       -2077.950          21.200  
E11                                                                  23190545.037                         -34.766          29.300  
E25                                                                  25593765.022                         297.972          34.800    25591860.740                         222.595          33.700  
E36                                                                  24676333.547                        2176.050          27.600  
G01  22288973.182                        -810.767          36.900    22286618.312                        -605.459          32.900  
G06  23678969.008                        3241.550          20.800  
G07  20552011.655                         -56.650          27.500  
G09  23598384.196                       -3177.300          25.900  
G13  23467977.474                        2193.150          25.800  
G14  22390243.074                          58.895          39.500    22387895.999                          43.799          29.500  
G17  20378085.862                        -249.883          30.600  
G19  21412782.656                        1700.700          25.400  
G30  20705502.096                        1182.543          38.000    20703152.023                         883.096          31.200  
J02  40804211.749                        1466.042          38.800    40801868.271                        1094.752          28.300  
J03  42028648.989                        -646.114          40.300    42026308.509                        -482.500          35.300  
R12  21925410.071                         336.550          33.300  
R13  21867545.031                        1757.400          25.800  
R23  19488681.384                        -727.479          31.100  
R24  20006112.673                        2729.100          21.800  
> 2022  3 11  7 41  6.4377569  0 32
C01  40335243.150                          27.800          30.600  
C05  36238517.154                         -24.000          26.700  
C06  37891156.956                       -1073.100          25.500  
C07  38231149.783                        -195.154          37.600  
C08  38634534.326                        1682.669          32.100  
C09  36428612.554                        -720.400          21.800  
C10  37804806.235                        -230.869          36.100  
C12  22477980.376                        2107.050          19.400  
C13  38622031.182                        1525.450          26.700  
C16  37812838.574                       -1100.500          25.100  
C24  25252185.134                        2048.768          26.900  
C26  22589427.622                        1209.564          35.300  
C34  25030422.057                        2953.800          22.700  
C35  22998177.850                       -2188.018          22.100  
E03                                                                  25441788.574                        -233.750          26.300    25439874.999                        -174.557          24.700  
E11                                                                  23190553.472                         -32.183          30.000  
E25                                                                  25593709.901                         300.937          33.000    25591803.521                         224.913          34.700  
E36                                                                  24675921.073                        2177.700          25.300    24674009.296                        1626.700          24.000  
G01  22289121.020                        -808.509          36.800    22286773.645                        -603.803          35.200  
G07  20552033.881                         -54.600          26.500  
G09  23599016.498                       -3175.850          25.300  
G13  23467529.625                        2194.150          23.500  
G14  22390226.327                          61.820          36.300    22387884.348                          46.127          30.300  
G17  20378140.764                        -248.700          27.200  
G19  21412459.820                        1705.000          23.800  
G30  20705278.492                        1185.010          34.700    20702926.320                         884.735          30.400  
J02  40803931.484                        1469.018          39.000    40801586.807                        1096.751          27.200  
J03  42028771.644                        -643.116          38.600    42026430.865                        -480.223          36.000  
R03  22535138.206                       -1073.350          18.200  
R12  21925311.181                         339.305          33.200  
R23  19488822.626                        -725.488          30.000  
R24  20005568.591                        2729.450          24.500  
> 2022  3 11  7 41  7.4377569  0 34
C02  35927605.408                          33.650          32.500  
C03  36917301.256                          16.800          33.900  
C07  38231181.875                        -193.154          39.000  
C08  38634205.767                        1685.354          33.300  
C09  36428763.963                        -716.000          27.600  
C10  37804849.119                        -228.629          40.600  
C12  22477611.345                        2112.650          25.100  
C13  38621736.200                        1527.326          32.000  
C16  37813033.753                       -1099.450          22.600  
C24  25253675.116                        2051.260          34.400  
C26  22587320.695                        1210.128          30.300  
C34  25029861.759                        2952.250          22.300  
C35  22998596.974                       -2188.417          23.800  
E02                                                                  27079955.009                         646.200          23.900  
E03                                                                  25441826.361                        -231.050          27.400    25439915.484                        -173.069          25.100  
E05                                                                  25162276.790                       -2073.900          23.800  
E11                                                                  23190557.682                         -30.230          30.600    23188640.809                         -22.850          24.700  
E25                                                                  25593653.254                         303.370          39.900    25591745.075                         226.556          36.300  
E36                                                                  24675494.482                        2180.500          24.900    24673594.997                        1626.850          26.800  
G01  22289277.825                        -806.972          40.300    22286925.654                        -602.521          39.300  
G06  23677712.332                        3248.100          20.600  
G07  20552042.289                         -54.968          33.300  
G09                                                                  23597264.225                       -2368.350          23.100  
G14  22390217.047                          63.893          41.200    22387870.271                          47.789          31.400  
G17  20378171.357                        -245.898          31.900  
G19  21412138.157                        1706.900          26.800  
G30  20705051.263                        1186.721          38.000    20702698.791                         886.038          32.600  
J02  40803653.890                        1470.985          41.000    40801305.315                        1098.473          32.800  
J03  42028896.372                        -640.919          41.100    42026551.095                        -478.633          36.200  
R02  22531357.837                       -2740.550          20.900  
R12  21925259.330                         341.227          35.900  
R13  21866889.439                        1760.400          27.000  
R23  19488967.440                        -723.450          28.400  
R24  20005067.351                        2730.682          32.700  
> 2022  3 11  7 41  8.4377569  0 33
C01  40335236.498                           5.350          33.300  
C02  35927605.937                          23.900          34.200  
C03  36917303.583                          15.050          35.900  
C06  37891578.107                       -1075.550          24.100  
C07  38231216.880                        -200.605          39.200  
C08  38633883.420                        1676.944          35.500  
C10  37804892.818                        -236.273          41.000  
C12  22477207.754                        2103.200          22.100  
C13  38621437.836                        1519.687          37.700  
C14  25962554.698                        -585.800          16.700  
C16  37813262.724                       -1105.600          28.400  
C24  25251400.520                        2044.117          31.900  
C26  22588966.185                        1203.700          43.500  
C34  25029309.770                        2944.350          23.300  
C35  22999016.913                       -2194.521          23.400  
E02                                                                  27079809.838                         639.800          22.600    27077896.263                         475.700          26.100  
E03                                                                  25441857.170                        -238.650          28.000    25439958.584                        -179.554          25.000  
E05                                                                  25162672.745                       -2081.950          26.900    25160762.767                       -1553.700          24.300  
E11                                                                  23190559.111                         -40.350          29.000    23188650.032                         -28.756          29.300  
E25                                                                  25593595.923                         295.882          42.600    25591688.643                         220.977          37.500  
E36                                                                  24675090.291                        2173.300          22.300    24673185.110                        1621.744          29.000  
G01  22289431.548                        -815.379          41.400    22287079.677                        -608.831          39.400  
G07  20552047.015                         -63.800          27.900  
G13  23466699.443                        2191.050          26.500  
G14  22390210.980                          56.249          42.800    22387859.408                          42.125          30.400  
G17  20378215.656                        -254.432          34.000  
G19  21411770.540                        1699.150          24.800  
G30  20704825.748                        1178.403          37.500    20702475.675                         880.135          35.400  
J02  40803367.217                        1463.473          33.000    40801026.438                        1092.907          34.900  
J03  42029018.317                        -648.559          39.400    42026674.240                        -484.144          38.200  
R12  21925187.609                         333.111          36.200  
R13  21866529.317                        1753.740          29.900  
R24  20004558.833                        2721.345          34.800  
> 2022  3 11  7 41  9.4377569  0 32
C01  40335231.364                           5.450          35.700  
C02  35927608.298                          -8.400          35.300  
C03  36917296.651                          16.150          36.400  
C05  36238505.369                           8.250          30.700  
C06  37891768.439                       -1081.050          26.500  
C07  38231258.814                        -204.427          40.500  
C08  38633562.305                        1672.975          36.400  
C10  37804939.249                        -240.088          42.200  
C12  22476794.903                        2105.200          25.100  
C13  38621146.101                        1515.594          38.500  
C16  37813468.944                       -1110.035          29.400  
C24  25252893.749                        2039.834          34.700  
C26  22588735.308                        1199.695          45.500  
C35  23001308.789                       -2200.108          29.800  
E02                                                                  27079690.484                         633.200          21.500    27077775.410                         473.294          27.400  
E03                                                                  25441909.297                        -245.200          26.100  
E05                                                                  25163071.432                       -2085.700          26.600    25161163.553                       -1557.050          26.800  
E11                                                                  23190565.070                         -43.162          31.900    23188654.493                         -32.218          28.900  
E25                                                                  25593540.125                         291.982          43.600    25591632.246                         218.059          38.200  
E36                                                                  24674665.449                        2166.900          21.800    24672769.861                        1618.499          31.200  
G01  22289577.810                        -820.097          41.500    22287235.832                        -612.337          39.600  
G07  20552055.972                         -68.291          32.600  
G14  22390197.153                          52.342          42.300    22387850.677                          39.266          31.000  
G17  20378261.187                        -259.096          29.400  
G30  20704600.567                        1174.164          33.900    20702250.194                         876.806          36.300  
J02  40803089.273                        1459.383          38.100    40800748.194                        1089.852          31.600  
J03  42029140.595                        -652.714          39.300    42026798.917                        -487.426          37.600  
R02  22532386.917                       -2749.150          20.800  
R12  21925123.717                         328.768          37.400  
R13  21866222.593                        1749.757          31.500  
R23  19489268.324                        -736.950          21.000  
R24  20004035.358                        2716.569          33.100  
> 2022  3 11  7 45 59.4377579  0 28
C01  40334560.940                          26.050          32.300  
C07  38241666.621                        -151.118          35.100  
C08  38540397.513                        1689.870          30.900  
C09  36470887.306                        -754.450          26.000  
C10  37817337.677                        -186.953          37.200  
C13  38536395.584                        1539.800          22.400  
C16  37875974.084                       -1116.350          25.900  
C24  25136256.407                        2098.315          24.900  
C26  22520678.134                        1194.061          31.600  
C34  24866440.497                        2905.450          25.400  
C35  23124623.532                       -2276.794          23.700  
E03                                                                                                                                  25456250.680                        -242.750          24.000  
E05                                                                  25278859.285                       -2091.550          22.200  
E11                                                                  23196381.255                        -149.089          29.400    23194467.380                        -111.570          27.600  
E25                                                                  25576156.271                         356.344          39.600    25574252.589                         266.040          33.200  
E36                                                                  24556831.335                        2121.114          30.600  
G01  22339581.905                        -973.417          38.800    22337232.431                        -726.849          36.900  
G07  20560062.440                        -204.109          35.200  
G13  23349358.751                        2073.013          28.800  
G14  22386535.100                          99.389          37.400    22384180.230                          73.914          27.300  
G17  20396752.897                        -390.050          26.300  
G19  21321972.381                        1569.000          21.100  
G30  20643114.245                        1071.484          36.200    20640765.371                         800.128          33.300  
J02  40722060.080                        1495.543          33.700    40719714.504                        1116.762          33.600  
J03  42064879.365                        -623.803          34.800    42062531.091                        -465.803          32.400  
R12  21908572.686                         298.068          34.600  
R13  21770293.415                        1800.376          30.100  
R23  19536209.739                        -978.400          24.500  
> 2022  3 11  7 46  0.4377579  0 31
C01  40334562.013                          24.050          32.800  
C06  37952915.692                       -1087.750          23.000  
C07  38241699.172                        -152.177          36.100  
C08  38540078.108                        1689.027          32.300  
C09  36471038.874                        -752.300          28.300  
C10  37817372.027                        -188.056          36.900  
C13  38536122.347                        1542.150          23.200  
C16  37876193.106                       -1120.300          25.300  
C24  25137730.360                        2097.784          33.700  
C26  22522322.969                        1192.700          38.800  
C34  24865882.157                        2901.000          24.100  
C35  23126936.604                       -2277.623          34.500  
E02                                                                  27043470.244                         695.800          21.400  
E03                                                                  25458228.884                        -327.100          23.200    25456312.011                        -243.350          25.400  
E05                                                                  25279280.667                       -2094.550          22.100  
E11                                                                  23196413.206                        -150.845          30.200    23194495.434                        -112.669          29.600  
E25                                                                  25576089.591                         355.218          41.000    25574185.908                         265.273          35.200  
E36                                                                  24556420.793                        2119.563          30.000    24554517.710                        1583.300          24.800  
G01  22339766.450                        -975.360          40.100    22337417.577                        -728.299          37.300  
G07  20560102.186                        -205.985          36.000  
G13  23348953.905                        2070.407          28.600  
G14  22386506.793                          98.065          38.000    22384160.017                          73.334          28.200  
G17  20396811.830                        -395.500          25.800  
G19  21321626.294                        1566.600          22.300  
G30  20642914.157                        1069.724          37.500    20640561.685                         798.874          35.200  
J02  40721775.151                        1494.232          35.900    40719428.975                        1115.914          33.600  
J03  42064994.359                        -625.072          34.900    42062650.282                        -466.733          33.300  
R12  21908523.094                         296.520          37.200  
R13  21769926.043                        1799.235          32.100  
R23  19536385.291                        -976.100          28.000  
R24  19861458.647                        2536.400          18.400  
> 2022  3 11  7 46  1.4377579  0 32
C01  40334548.261                          39.000          32.300  
C02  35927393.471                          32.500          29.700  
C03  36916109.896                          43.300          27.900  
C05  36237542.259                          13.300          24.300  
C06  37953140.275                       -1099.100          23.800  
C07  38241727.690                        -162.458          36.000  
C08  38539750.174                        1678.663          32.700  
C09  36471180.415                        -765.150          28.900  
C10  37817409.540                        -198.391          37.400  
C16  37876408.096                       -1129.500          27.100  
C24  25137328.977                        2087.472          33.500  
C26  22520220.863                        1182.163          32.400  
C34  24865344.368                        2890.450          27.000  
C35  23127377.637                       -2288.757          36.100  
E03                                                                                                                                  25456376.805                        -252.567          24.900  
E05                                                                  25279664.140                       -2102.000          22.700  
E11                                                                  23196437.528                        -161.450          28.900    23194523.653                        -121.084          28.500  
E25                                                                  25576023.975                         344.955          40.100    25574118.793                         257.490          35.200  
E36                                                                  24556024.505                        2109.450          29.100    24554114.528                        1574.600          23.200  
G01  22339955.958                        -986.553          41.200    22337603.786                        -736.613          37.200  
G07  20560139.699                        -217.057          35.300  
G13  23348541.429                        2059.000          26.800  
G14  22386493.640                          87.389          38.100    22384142.668                          65.410          27.600  
G17  20396894.911                        -408.600          26.000  
G19  21321340.331                        1557.650          23.600  
G30  20642707.938                        1058.734          38.100    20640359.364                         790.638          35.600  
J02  40721486.789                        1483.460          37.000    40719146.309                        1108.028          33.000  
J03  42065117.013                        -635.430          36.400    42062769.938                        -474.347          32.500  
R03  22598069.769                       -1188.450          20.000  
R12  21908474.866                         285.238          37.800  
R13  21769609.500                        1788.563          32.000  
R23  19536565.804                        -989.250          28.300  
> 2022  3 11  7 46  2.4377579  0 30
C01  40334553.914                         -20.900          32.400  
C06  37953335.397                       -1107.700          22.500  
C07  38241760.025                        -171.076          36.500  
C08  38539432.051                        1669.920          32.700  
C09  36471332.067                        -774.681          29.300  
C10  37817446.671                        -206.871          37.100  
C16  37876629.300                       -1138.350          26.200  
C24  25135052.310                        2079.177          28.000  
C26  22519995.077                        1173.590          33.500  
C34  24864776.218                        2883.750          24.900  
C35  23127816.790                       -2297.271          36.000  
E03                                                                  25458347.298                        -347.700          20.200    25456442.416                        -259.035          25.500  
E05                                                                  25280071.515                       -2111.500          22.600  
E11                                                                  23196475.559                        -170.831          30.600    23194557.487                        -127.660          29.500  
E25                                                                  25575958.577                         336.315          41.400    25574054.295                         251.078          35.600  
E36                                                                  24555619.143                        2099.922          29.800    24553712.164                        1569.150          23.600  
G01  22340141.487                        -995.760          40.800    22337792.613                        -743.621          37.900  
G07  20560184.026                        -226.319          35.400  
G13  23348156.153                        2050.250          27.800  
G14  22386477.109                          79.093          37.700    22384126.436                          59.095          27.800  
G17  20396974.913                        -414.050          28.200  
G30  20642507.634                        1049.583          37.900    20640159.060                         783.818          36.300  
J02  40721215.134                        1475.199          37.400    40718864.461                        1101.560          33.100  
J03  42065238.386                        -644.200          36.500    42062890.711                        -481.071          33.100  
R02  22682950.865                       -2725.450          15.900  
R03  22598239.709                       -1203.950          24.900  
R12  21908433.152                         276.579          38.300  
R13  21769276.088                        1779.910          32.400  
R23  19536759.428                        -998.492          29.600  
R24  19860542.477                        2528.200          19.800  
> 2022  3 11  7 46  3.4377579  0 30
C01  40334548.084                          19.800          32.300  
C02  35927388.197                          -5.000          30.900  
C06  37953550.215                       -1118.750          24.500  
C07  38241794.367                        -177.726          36.100  
C08  38539111.139                        1663.264          31.900  
C09  36471482.129                        -781.800          28.800  
C10  37817487.609                        -213.580          37.000  
C16  37876843.518                       -1148.300          27.100  
C24  25136530.453                        2072.284          34.600  
C26  22519771.297                        1166.647          33.700  
C34  24864225.066                        2875.700          25.600  
C35  23128257.351                       -2304.463          36.200  
E03                                                                  25458426.909                        -356.800          21.300    25456507.637                        -264.653          26.100  
E05                                                                  25280484.196                       -2119.100          23.600  
E11                                                                  23196501.507                        -178.132          31.400    23194592.129                        -133.209          28.800  
E25                                                                  25575896.386                         329.688          41.100    25573990.605                         246.118          35.400  
E36                                                                  24555220.885                        2092.728          30.000    24553319.002                        1562.700          22.700  
G01  22340331.121                       -1003.211          40.400    22337982.847                        -749.109          37.600  
G07  20560229.460                        -233.663          35.500  
G13  23347788.773                        2041.800          27.300  
G14  22386459.287                          72.233          37.500    22384112.812                          53.939          27.800  
G17  20397049.127                        -420.550          27.300  
G19  21320760.056                        1543.550          21.500  
G30  20642310.237                        1042.345          37.700    20639960.463                         778.335          35.900  
J02  40720932.596                        1468.304          37.500    40718584.921                        1096.530          33.400  
J03  42065361.167                        -650.958          36.300    42063015.291                        -486.012          33.500  
R03  22598456.025                       -1211.100          26.300  
R12  21908373.959                         269.360          37.700  
R13  21768938.988                        1773.046          31.400  
R23  19536937.071                       -1006.300          29.100  
