     3.03           OBSERVATION DATA    M: Mixed            RINEX VERSION / TYPE
Geo++ RINEX Logger  Geo++               20220311 073527 UTC PGM / RUN BY / DATE
************************************************************COMMENT
This file was generated by the Geo++ RINEX Logger App       COMMENT
for Android devices (Version 2.1.6). If you encounter       COMMENT
any issues, please send an email to android@geopp.de        COMMENT
Filtering Mode: BEST                                        COMMENT
************************************************************COMMENT
geo                                                         MARKER NAME
GEODETIC                                                    MARKER TYPE
Geo++               Geo++                                   OBSERVER / AGENCY
unknown             OnePlus             IN2011              REC # / TYPE / VERS
unknown             IN2011                                  ANT # / TYPE
  1501539.1459  6066640.7205  1272398.5981                  APPROX POSITION XYZ
        0.0000        0.0000        0.0000                  ANTENNA: DELTA H/E/N
G    8 C1C L1C D1C S1C C5Q L5Q D5Q S5Q                      SYS / # / OBS TYPES
R    4 C1C L1C D1C S1C                                      SYS / # / OBS TYPES
E   12 C1B L1B D1B S1B C1C L1C D1C S1C C5Q L5Q D5Q S5Q      SYS / # / OBS TYPES
C    4 C2I L2I D2I S2I                                      SYS / # / OBS TYPES
J    8 C1C L1C D1C S1C C5Q L5Q D5Q S5Q                      SYS / # / OBS TYPES
  2022     3    11     7    35   45.4377561     GPS         TIME OF FIRST OBS
 24 R01  1 R02 -4 R03  5 R04  6 R05  1 R06 -4 R07  5 R08  6 GLONASS SLOT / FRQ #
    R09 -2 R10 -5 R11  0 R12 -1 R13 -2 R14 -7 R15  0 R16 -1 GLONASS SLOT / FRQ #
    R17  4 R18 -3 R19  3 R20  2 R21  4 R22 -3 R23  3 R24  2 GLONASS SLOT / FRQ #
G L1C                                                       SYS / PHASE SHIFT
G L5Q -0.25000                                              SYS / PHASE SHIFT
R L1C                                                       SYS / PHASE SHIFT
E L1B                                                       SYS / PHASE SHIFT
E L1C +0.50000                                              SYS / PHASE SHIFT
E L5Q -0.25000                                              SYS / PHASE SHIFT
C L2I                                                       SYS / PHASE SHIFT
J L1C                                                       SYS / PHASE SHIFT
J L5Q -0.25000                                              SYS / PHASE SHIFT
 C1C    0.000 C1P    0.000 C2C    0.000 C2P    0.000        GLONASS COD/PHS/BIS
                                                            END OF HEADER
> 2022  3 11  7 35 45.4377561  3  1
geo                                                         MARKER NAME
> 2022  3 11  7 35 45.4377561  0 30
C06  37825672.118                       -1043.600          28.000  
C07  38217599.192                        -233.381          35.800  
C08  38737894.999                        1681.222          37.300  
C09  36385349.832                        -675.450          28.700  
C10  37789071.056                        -268.490          37.400  
C16  37745597.552                       -1070.149          31.500  
C24  25378573.165                        2000.967          31.600  
C26  22664327.198                        1230.260          38.000  
C34  25212045.949                        3009.891          25.600  
C35  22868131.807                       -2075.450          22.300  
E03                                                                  25430631.226                        -119.421          29.900  
E05                                                                  25035794.666                       -2040.450          28.500  
E11                                                                                                                                  23190508.231                          77.864          29.300  
E25                                                                  25610195.516                         249.900          37.400    25608299.029                         186.628          31.700  
E36                                                                  24810632.242                        2242.850          24.800    24808720.166                        1674.491          28.100  
G01  22245202.652                        -618.593          31.100    22242852.279                        -461.827          33.600  
G07  20553306.528                         109.215          33.700  
G09                                                                  23402058.578                       -2376.500          22.200  
G13  23605660.527                        2335.950          22.000  
G14  22392750.907                          32.215          37.600    22390406.530                          24.087          31.700  
G17  20367935.857                         -78.000          24.700  
G19  21520863.002                        1856.725          29.000  
G30  20781240.232                        1311.047          33.300    20778865.876                         978.949          33.300  
J02  40892697.660                        1448.395          30.900    40890354.183                        1081.421          25.200  
J03  41988822.229                        -653.388          30.100    41986490.143                        -487.861          35.700  
R02  22365115.438                       -2752.450          28.600  
R03  22475171.348                        -920.050          25.200  
R12  21946780.546                         384.552          32.500  
R13  21971367.425                        1716.520          29.700  
R24  20175094.958                        2929.550          20.900  
> 2022  3 11  7 35 46.4377561  0 33
C06  37825872.919                       -1034.550          26.400  
C07  38217645.001                        -230.262          33.800  
C08  38737570.864                        1684.388          36.800  
C09  36385466.991                        -669.500          27.100  
C10  37789120.462                        -265.291          37.300  
C12  22611357.409                        2234.300          22.400  
C13  38714988.397                        1512.900          21.700  
C14  25928348.704                        -509.950          19.600  
C16  37745803.150                       -1067.128          29.300  
C24  25378195.367                        2004.248          31.500  
C26  22664090.902                        1233.115          37.600  
C34  25213333.199                        3012.850          25.300  
C35  22868524.776                       -2076.450          22.900  
E03                                                                  25430659.047                        -117.047          29.900  
E05                                                                  25036196.328                       -2038.050          26.900  
E11                                                                                                                                  23190488.985                          79.807          27.500  
E25                                                                  25610156.783                         252.956          37.100    25608251.003                         188.975          30.600  
E36                                                                  24810206.777                        2244.950          25.300    24808292.003                        1676.522          27.300  
G01  22245335.101                        -616.130          29.900    22242969.139                        -459.977          32.700  
G07  20553289.080                         111.703          32.900  
G09  23404997.383                       -3188.550          19.500  
G13  23605203.883                        2339.200          25.000  
G14  22392749.948                          35.397          36.900    22390401.374                          26.387          31.400  
G17  20367960.081                         -69.950          25.600  
G19  21520508.888                        1861.900          27.000  
G30  20780980.253                        1313.644          31.600    20778616.389                         981.005          32.600  
J02  40892421.492                        1451.376          31.000    40890078.014                        1083.950          23.800  
J03  41988939.088                        -652.400          28.400    41986615.097                        -485.600          35.000  
R02  22365651.708                       -2749.112          29.200  
R03  22475279.814                        -914.900          22.500  
R12  21946708.236                         387.472          31.300  
R13  21971065.174                        1719.318          29.900  
R24  20174571.461                        2931.500          21.500  
> 2022  3 11  7 35 47.4377561  0 33
C01  40335972.715                          46.150          34.200  
C06  37826076.080                       -1029.250          26.400  
C07  38217686.274                        -223.424          34.300  
C08  38737246.690                        1691.869          34.100  
C09  36385603.299                        -660.200          27.300  
C10  37789176.725                        -257.756          39.200  
C12  22610923.211                        2253.950          24.500  
C13  38714689.706                        1521.510          34.500  
C16  37746011.708                       -1060.200          28.000  
C24  25375928.538                        2011.471          32.700  
C26  22663853.368                        1240.645          38.600  
C34  25212787.178                        3024.600          23.700  
C35  22868958.177                       -2066.200          24.900  
E02                                                                  27117383.054                         612.100          22.800  
E03                                                                  25430686.830                        -111.200          28.300  
E05                                                                  25036564.375                       -2028.500          25.000  
E11                                                                  23192379.677                         116.950          22.600    23190470.299                          84.921          29.100  
E25                                                                  25610107.519                         260.831          36.800    25608201.739                         194.541          29.600  
E36                                                                  24809768.083                        2255.300          26.200    24807862.602                        1682.510          26.900  
G01  22245441.129                        -609.041          36.500    22243085.660                        -454.799          32.000  
G07  20553262.900                         118.955          32.400  
G09  23405619.055                       -3171.950          22.300  
G13  23604753.497                        2344.289          29.100  
G14  22392741.156                          43.261          37.600    22390394.980                          31.751          28.300  
G17  20367965.978                         -64.550          24.400  
G19  21520142.143                        1865.150          27.100  
G30  20780721.733                        1321.049          33.800    20778368.063                         986.332          33.900  
J02  40892135.092                        1459.040          34.400    40889800.008                        1089.481          29.600  
J03  41989085.289                        -642.729          35.700    41986738.513                        -480.008          34.000  
R02  22366179.844                       -2743.150          27.500  
R12  21946643.982                         395.868          31.700  
R13  21970756.889                        1728.086          30.400  
R24  20173991.564                        2941.700          26.600  
> 2022  3 11  7 35 48.4377561  0 36
C01  40335966.560                          28.349          40.900  
C03  36918582.566                          41.350          32.900  
C06  37826286.076                       -1027.448          29.700  
C07  38217720.291                        -220.039          33.800  
C08  38736921.856                        1694.812          36.800  
C09  36385728.453                        -658.150          28.900  
C10  37789222.434                        -255.058          40.000  
C13  38714399.647                        1524.034          40.900  
C16  37746230.397                       -1056.650          28.900  
C21  25573239.783                       -1610.750          20.200  
C24  25377419.547                        2013.681          30.300  
C26  22663613.675                        1242.994          35.100  
C34  25210308.035                        3021.546          24.100  
C35  22869344.751                       -2065.951          32.500  
E02                                                                  27117264.777                         610.850          28.300  
E03                                                                  25430704.358                        -107.084          30.200    25428793.181                         -81.050          26.500  
E05                                                                  25036962.040                       -2027.403          31.100  
E11                                                                  23192356.434                         116.451          32.600    23190446.756                          86.895          35.600  
E25                                                                  25610059.393                         263.590          40.400    25608152.114                         197.030          29.600  
E36                                                                  24809344.916                        2255.505          32.500    24807432.540                        1684.529          31.100  
G01  22245548.895                        -607.161          41.700    22243202.120                        -453.354          38.100  
G07  20553224.967                         120.900          30.500  
G09  23406208.587                       -3168.950          24.100  
G13  23604345.320                        2347.359          30.000  
G14  22392730.504                          45.449          38.200  
G17  20367960.423                         -62.563          30.900  
G19  21519799.921                        1868.757          31.300  
G30  20780464.952                        1322.984          36.200    20778116.977                         988.034          36.700  
J02  40891858.224                        1461.644          37.200    40889522.841                        1091.593          37.600  
J03  41989206.546                        -639.883          40.400    41986860.070                        -477.772          36.500  
R02  22366702.223                       -2740.000          25.200  
R03  22475602.433                        -911.350          28.700  
R12  21946573.972                         397.577          35.600  
R13  21970411.369                        1730.327          33.700  
R23  19453802.082                        -427.451          30.600  
R24  20173464.370                        2941.118          35.300  
> 2022  3 11  7 35 49.4377561  0 34
C01  40335961.717                          19.119          40.900  
C06  37826477.597                       -1037.700          28.000  
C07  38217769.711                        -229.163          40.200  
C08  38736596.535                        1684.904          38.500  
C09  36385855.819                        -669.900          25.500  
C10  37789271.854                        -264.209          38.300  
C12  22610094.680                        2238.550          27.400  
C13  38714106.704                        1514.331          39.900  
C16  37746432.111                       -1066.801          30.700  
C21  25573559.316                       -1619.050          25.600  
C24  25375157.267                        2005.730          30.000  
C26  22663374.095                        1233.409          34.400  
C34  25209730.589                        3013.253          23.100  
C35  22869747.026                       -2075.511          36.300  
E02                                                                  27117156.206                         605.150          22.300  
E03                                                                  25430709.109                        -116.900          28.000    25428814.720                         -87.782          27.800  
E05                                                                  25037341.232                       -2036.250          25.500    25035427.057                       -1521.441          30.900  
E11                                                                  23192343.197                         106.250          27.200    23190425.125                          79.265          35.800  
E25                                                                  25610011.081                         254.598          38.900    25608104.401                         189.862          24.400  
E36                                                                  24808915.867                        2245.484          33.400    24807003.491                        1676.783          32.900  
G01  22245669.966                        -617.424          42.700    22243317.794                        -460.905          37.500  
G07  20553233.915                         110.904          31.700  
G13  23603879.996                        2336.797          31.600  
G14  22392717.567                          36.170          38.500    22390376.487                          26.935          30.500  
G17  20367980.163                         -72.522          32.300  
G19  21519464.407                        1860.750          26.900  
G30  20780221.474                        1313.241          37.300    20777865.705                         980.665          36.900  
J02  40891590.164                        1452.003          41.700    40889245.187                        1084.403          37.000  
J03  41989326.716                        -649.359          41.800    41986983.239                        -484.998          36.600  
R03  22475786.459                        -919.850          26.500  
R12  21946484.887                         387.681          41.300  
R13  21970072.258                        1720.862          34.100  
R23  19453896.770                        -438.119          32.800  
R24  20172905.211                        2930.370          33.900  
> 2022  3 11  7 35 50.4377561  0 33
C01  40335961.581                          11.368          40.900  
C06  37826685.517                       -1051.500          26.200  
C07  38217813.045                        -236.917          39.900  
C08  38736276.220                        1677.258          38.700  
C10  37789322.683                        -272.001          38.500  
C12  22609661.343                        2228.750          28.700  
C13  38713817.568                        1506.685          40.200  
C16  37746628.639                       -1074.652          29.600  
C21  25573872.463                       -1621.800          23.400  
C24  25376634.508                        1999.500          24.200  
C26  22663137.723                        1225.710          35.100  
C34  25209151.254                        3004.947          24.000  
C35  22870145.614                       -2083.525          37.000  
E02                                                                  27117022.662                         594.700          25.200  
E03                                                                  25430740.151                        -125.396          29.900    25428837.369                         -94.064          29.600  
E05                                                                  25037738.021                       -2045.503          30.300    25035816.651                       -1527.363          31.500  
E11                                                                  23192319.678                          97.750          28.800    23190405.802                          73.273          35.900  
E25                                                                  25609963.877                         246.534          39.800    25608056.298                         184.068          26.000  
E36                                                                  24808488.227                        2237.283          32.900    24806577.350                        1670.848          33.800  
G01  22245786.149                        -625.726          42.600    22243436.376                        -467.159          37.800  
G07  20553212.493                         102.522          29.600  
G13  23603433.170                        2328.524          32.100  
G14  22392709.936                          28.366          37.700    22390370.955                          21.162          29.200  
G17  20367996.516                         -80.972          33.000  
G19  21519116.812                        1849.250          25.400  
G30  20779960.219                        1304.961          36.600    20777615.842                         974.569          36.900  
J02  40891309.422                        1444.366          40.800    40888969.542                        1078.712          37.400  
J03  41989445.598                        -657.225          41.300    41987107.517                        -490.738          36.800  
R03  22475944.614                        -927.250          27.200  
R12  21946410.702                         379.666          41.200  
R13  21969755.241                        1713.011          34.300  
R23  19453987.171                        -447.079          32.500  
R24  20172376.541                        2921.875          34.300  
> 2022  3 11  7 35 51.4377561  0 38
C01  40335956.911                           8.973          40.700  
C03  36918579.512                           7.150          25.500  
C05  36239558.288                          35.500          26.000  
C06  37826898.196                       -1051.300          26.400  
C07  38217858.440                        -239.221          40.000  
C08  38735952.870                        1674.704          39.000  
C09  36386144.509                        -681.450          22.800  
C10  37789377.671                        -274.341          38.400  
C12  22609242.060                        2228.350          26.600  
C13  38713529.594                        1504.236          40.500  
C14  25928875.126                        -523.150          25.000  
C16  37746837.121                       -1077.207          29.800  
C21  25574184.973                       -1625.250          25.000  
C24  25376251.799                        1995.950          23.800  
C26  22662897.715                        1223.151          33.700  
C34  25208574.280                        3002.285          25.500  
C35  22870542.365                       -2086.316          35.300  
E02                                                                  27116919.360                         591.800          26.600  
E03                                                                  25430764.261                        -128.219          29.900    25428860.878                         -95.979          27.700  
E05                                                                  25038129.076                       -2047.953          29.300    25036204.709                       -1529.362          31.100  
E11                                                                  23192298.219                          95.064          29.700    23190387.641                          70.986          36.300  
E25                                                                  25609916.037                         244.242          39.700    25608011.155                         182.229          24.800  
E36                                                                  24808063.847                        2234.602          31.800    24806152.071                        1668.666          33.700  
G01  22245900.796                        -628.829          42.600    22243555.819                        -469.551          38.400  
G07  20553185.638                         102.950          26.100  
G13  23602993.800                        2325.639          32.800  
G14  22392720.555                          26.034          38.300    22390365.385                          19.354          27.800  
G17  20368005.935                         -83.948          33.600  
G19  21518755.988                        1847.269          28.900  
G30  20779711.518                        1302.081          36.300    20777368.040                         972.292          36.900  
J02  40891037.636                        1441.962          40.800    40888694.458                        1076.696          37.100  
J03  41989574.035                        -659.761          41.100    41987232.356                        -492.732          36.500  
R02  22368237.404                       -2762.900          18.900  
R03  22476139.005                        -931.650          23.200  
R12  21946340.377                         376.916          41.800  
R13  21969449.279                        1710.713          35.000  
R23  19454067.042                        -450.544          32.800  
R24  20171831.644                        2918.657          34.600  
> 2022  3 11  7 40 29.4377569  0 35
C01  40335321.654                          15.950          36.100  
C02  35927632.334                          37.300          34.400  
C03  36917448.399                          51.700          33.300  
C06  37883508.909                       -1060.500          29.200  
C07  38229687.355                        -192.875          40.800  
C08  38646432.748                        1689.485          32.100  
C09  36423472.571                        -708.079          30.600  
C10  37803089.282                        -228.491          38.800  
C12  22493019.423                        2134.050          28.600  
C14  25958192.434                        -562.150          21.000  
C16  37804976.776                       -1089.744          31.700  
C24  25266670.464                        2050.854          27.500  
C26  22597976.163                        1219.052          42.500  
C34  25051380.207                        2965.150          27.400  
C35  22984489.585                       -2170.312          36.600  
E02                                                                  27084518.395                         644.950          28.600    27082599.123                         481.100          23.200  
E03                                                                  25440139.075                        -213.500          26.700  
E05                                                                  25147223.556                       -2065.700          22.500    25145319.574                       -1541.974          26.600  
E11                                                                  23190307.900                          -9.650          22.100    23188418.009                          -9.350          22.400  
E25                                                                  25595751.746                         302.016          38.400    25593845.366                         225.777          36.300  
E36                                                                  24691228.135                        2192.350          25.300    24689311.562                        1637.631          26.200  
G01  22283446.807                        -779.806          41.400    22281100.332                        -582.214          39.800  
G07  20551628.820                         -30.715          34.200  
G09  23576585.686                       -3170.320          28.800  
G14  22390595.330                          65.093          41.800    22388248.555                          48.871          30.200  
G17  20376391.734                        -220.932          29.500  
G30  20713618.377                        1206.861          38.300    20711264.706                         901.320          31.800  
J02  40814205.930                        1473.405          40.300    40811862.452                        1100.364          32.400  
J03  42024181.781                        -637.550          41.000    42021840.402                        -475.949          37.200  
R02  22511696.493                       -2741.800          25.900  
R03  22527777.361                       -1045.950          22.700  
R12  21927623.439                         351.840          35.900  
R13  21879326.874                        1761.125          29.500  
R23  19483898.494                        -685.541          31.600  
R24  20024495.347                        2759.502          31.000  
> 2022  3 11  7 40 30.4377569  0 35
C01  40335317.936                          24.600          34.900  
C02  35927622.919                          22.900          33.400  
C06  37883709.948                       -1065.950          29.200  
C07  38229721.709                        -197.754          40.500  
C08  38646101.656                        1684.310          31.500  
C09  36423616.350                        -712.800          28.700  
C10  37803133.830                        -233.339          38.600  
C12  22492610.985                        2128.450          27.800  
C13  38632512.064                        1530.100          21.300  
C14  25958300.837                        -568.150          23.000  
C16  37805190.706                       -1092.500          28.700  
C24  25268141.125                        2045.509          32.200  
C26  22597740.705                        1213.980          42.000  
C34  25050818.274                        2960.800          25.900  
C35  22984904.677                       -2175.633          35.600  
E02                                                                  27084402.553                         639.300          27.000    27082474.888                         478.000          23.300  
E03                                                                  25440176.727                        -219.100          26.100  
E05                                                                  25147615.863                       -2070.100          21.800    25145713.980                       -1546.097          25.900  
E11                                                                  23190307.180                         -14.950          20.200    23188413.990                         -11.950          24.200  
E25                                                                  25595695.564                         297.133          37.900    25593788.284                         221.960          35.400  
E36                                                                                                                                  24688895.029                        1633.301          24.500  
G01  22283600.180                        -785.400          40.500    22281248.907                        -586.511          38.300  
G07  20551629.298                         -36.295          33.500  
G09  23577199.540                       -3175.750          27.100  
G14  22390581.418                          60.119          41.900    22388236.142                          44.762          30.100  
G17  20376419.793                        -226.630          28.700  
G30  20713385.317                        1201.382          37.900    20711035.843                         897.139          30.300  
J02  40813925.203                        1468.473          40.100    40811581.125                        1096.581          31.600  
J03  42024303.975                        -642.550          41.500    42021961.397                        -479.758          36.200  
R02  22512171.543                       -2742.700          24.300  
R03  22527971.805                       -1050.300          26.300  
R12  21927557.663                         346.602          34.200  
R13  21879002.677                        1757.300          28.300  
R23  19484013.493                        -691.556          31.500  
R24  20023989.775                        2753.730          29.300  
> 2022  3 11  7 40 31.4377569  0 36
C01  40335319.127                          10.750          35.700  
C02  35927627.108                          13.850          34.700  
C03  36917440.475                          20.450          32.600  
C06  37883912.300                       -1067.600          29.200  
C07  38229761.874                        -199.224          40.400  
C08  38645781.469                        1682.793          34.300  
C09  36423747.351                        -715.200          26.800  
C10  37803179.990                        -234.859          38.200  
C12  22492202.659                        2123.150          24.300  
C13  38632223.056                        1522.600          22.300  
C16  37805405.949                       -1097.000          28.600  
C24  25267753.485                        2044.079          34.700  
C26  22595631.657                        1212.515          26.000  
C34  25050245.063                        2957.700          23.100  
C35  22985321.680                       -2177.790          35.400  
E02                                                                  27084275.433                         638.000          28.000  
E03                                                                  25440220.189                        -221.550          25.600  
E05                                                                  25148003.487                       -2072.300          21.800    25146109.098                       -1547.109          25.400  
E11                                                                  23190314.067                         -17.450          22.000    23188416.380                         -12.651          25.700  
E25                                                                  25595637.396                         295.769          38.100    25593732.215                         220.892          36.500  
E36                                                                  24690390.685                        2185.850          24.200    24688478.309                        1632.014          25.600  
G01  22283747.070                        -787.685          41.100    22281398.196                        -588.178          38.400  
G07  20551643.380                         -38.385          34.700  
G09  23577803.613                       -3179.500          26.300  
G14  22390566.720                          58.471          41.600    22388226.540                          43.815          31.100  
G17  20376467.152                        -229.550          28.300  
G19  21423794.203                        1722.600          18.300  
G30  20713158.965                        1199.304          37.700    20710807.993                         895.528          31.600  
J02  40813645.188                        1466.881          40.700    40811302.610                        1095.464          30.500  
J03  42024423.884                        -643.993          41.200    42022084.603                        -480.938          35.900  
R02  22512730.048                       -2747.150          24.800  
R03  22528160.666                       -1053.850          26.400  
R12  21927498.895                         344.676          36.100  
R13  21878630.027                        1753.800          28.900  
R23  19484141.197                        -694.044          31.000  
R24  20023472.625                        2751.454          29.400  
> 2022  3 11  7 40 32.4377569  0 37
C01  40335309.297                           0.500          35.400  
C02  35927622.975                           4.600          33.100  
C03  36917427.048                          28.650          32.200  
C06  37884118.321                       -1075.250          28.700  
C07  38229800.011                        -205.943          39.300  
C08  38645465.551                        1675.468          30.100  
C09  36423881.122                        -721.900          27.100  
C10  37803222.624                        -241.489          37.700  
C12  22491794.405                        2120.600          26.100  
C13  38631925.425                        1517.216          33.300  
C14  25958510.747                        -573.750          20.200  
C16  37805611.970                       -1102.700          26.400  
C24  25265492.814                        2037.772          29.000  
C26  22597276.981                        1205.361          42.600  
C34  25049688.712                        2948.750          22.800  
C35  22985737.556                       -2184.810          35.300  
E02                                                                  27084167.272                         633.900          25.600    27082228.814                         471.100          23.600  
E03                                                                  25440253.529                        -229.050          27.300  
E05                                                                  25148418.762                       -2079.050          21.700    25146505.787                       -1550.650          23.900  
E11                                                                  23190329.719                         -25.950          28.800    23188418.542                         -17.150          24.100  
E25                                                                  25595583.497                         288.891          36.600    25593675.618                         215.688          34.300  
E36                                                                  24689980.033                        2176.750          25.200  
G01  22283898.229                        -795.084          40.100    22281549.055                        -593.714          37.600  
G07  20551642.245                         -46.588          31.600  
G09  23578416.452                       -3185.050          25.600  
G14  22390560.488                          51.648          41.100    22388215.212                          38.776          28.700  
G17  20376519.679                        -235.757          32.100  
G19  21423449.805                        1708.850          23.900  
G30  20712935.384                        1192.180          38.600    20710581.713                         890.186          31.800  
J02  40813367.644                        1459.965          40.000    40811024.766                        1090.253          33.300  
J03  42024545.363                        -651.075          40.300    42022206.682                        -486.168          35.600  
R02  22513249.352                       -2746.950          25.200  
R03  22528399.964                       -1057.100          24.400  
R12  21927426.409                         337.744          35.200  
R13  21878324.002                        1749.650          27.700  
R23  19484277.666                        -701.723          29.300  
R24  20022921.370                        2744.550          27.800  
> 2022  3 11  7 40 33.4377569  0 32
C01  40335310.171                           0.750          33.900  
C06  37884328.150                       -1078.400          27.700  
C07  38229837.159                        -208.983          36.700  
C08  38645135.454                        1673.115          31.500  
C09  36424031.892                        -722.950          23.000  
C10  37803275.662                        -244.707          40.300  
C12  22491390.259                        2112.250          24.600  
C13  38631630.104                        1513.861          31.000  
C16  37805827.495                       -1107.250          26.500  
C24  25265101.259                        2034.603          31.400  
C26  22597042.818                        1202.264          40.400  
C34  25049104.091                        2949.300          23.700  
C35  22986157.239                       -2188.224          35.000  
E02                                                                  27084029.042                         628.850          22.200    27082107.972                         469.281          26.800  
E03                                                                  25440283.483                        -230.950          25.600    25438391.793                        -173.650          26.400  
E05                                                                  25148817.161                       -2082.350          21.800  
E11                                                                  23190338.687                         -28.150          28.100    23188424.513                         -20.198          24.700  
E25                                                                  25595528.909                         286.205          41.600    25593621.929                         213.676          37.500  
E36                                                                  24689562.696                        2175.250          25.100    24687653.318                        1624.150          26.800  
G01  22284049.598                        -799.082          40.600    22281701.324                        -596.741          41.200  
G07  20551668.001                         -49.470          34.500  
G09  23579033.699                       -3189.400          23.800  
G14  22390553.267                          48.867          42.100    22388206.192                          36.249          30.600  
G17  20376567.321                        -240.020          33.900  
G30  20712712.013                        1188.269          41.400    20710354.745                         887.431          37.600  
J02  40813087.013                        1457.014          39.200    40810748.931                        1087.994          36.600  
J03  42024674.248                        -654.155          40.700    42022331.070                        -488.476          38.200  
R02  22513859.404                       -2756.800          23.600  
R12  21927368.224                         334.121          36.000  
R13  21877984.911                        1745.347          33.400  
R23  19484404.152                        -704.850          23.100  
R24  20022406.301                        2741.000          28.000  
> 2022  3 11  7 40 34.4377569  0 36
C01  40335311.089                           8.950          33.600  
C03  36917423.443                          26.300          31.900  
C06  37884530.829                       -1077.550          26.900  
C07  38229874.352                        -210.298          37.300  
C08  38644817.094                        1673.098          32.700  
C09  36424194.998                        -725.550          22.600  
C10  37803320.949                        -245.779          36.400  
C13  38631342.322                        1512.521          32.200  
C14  25958726.891                        -586.750          20.900  
C16  37806038.268                       -1109.350          25.900  
C21  25660866.895                       -1562.650          17.000  
C24  25264711.548                        2032.993          29.000  
C26  22596812.596                        1200.512          42.700  
C35  22986582.963                       -2189.983          36.200  
E02                                                                  27083929.529                         627.650          26.900    27081990.472                         468.396          27.100  
E03                                                                  25440357.850                        -232.950          23.900    25438434.982                        -174.200          23.000  
E05                                                                  25149194.019                       -2084.400          23.000  
E11                                                                  23190343.203                         -29.549          31.900    23188432.926                         -22.589          25.700  
E25                                                                  25595474.066                         284.652          41.700    25593567.086                         212.676          38.700  
E36                                                                  24689167.289                        2175.650          20.500    24687238.724                        1623.101          29.500  
G01  22284205.209                        -800.709          40.400    22281852.438                        -597.922          41.500  
G07  20551678.813                         -51.057          33.100  
G09  23579611.119                       -3183.900          23.100  
G13  23480974.903                        2198.527          29.000  
G14  22390540.995                          47.309          42.800    22388198.117                          35.291          27.000  
G17  20376597.919                        -241.786          35.200  
G19  21422808.542                        1708.700          23.700  
G30  20712487.187                        1186.753          39.600    20710127.221                         886.124          36.800  
J02  40812812.122                        1455.801          41.000    40810471.042                        1087.135          35.600  
J03  42024793.584                        -655.171          38.100    42022455.803                        -489.331          38.900  
R02  22514287.527                       -2753.800          21.800  
R03  22528746.817                       -1065.850          22.500  
R12  21927316.378                         332.706          39.400  
R13  21877680.940                        1743.757          34.100  
R23  19484529.185                        -708.581          29.900  
R24  20021917.958                        2736.350          28.500  
> 2022  3 11  7 40 35.4377569  0 34
C01  40335306.045                          -4.700          34.200  
C02  35927619.423                           5.300          28.600  
C03  36917430.391                          15.000          34.800  
C06  37884729.344                       -1082.150          28.000  
C07  38229915.477                        -212.620          39.300  
C08  38644498.167                        1668.995          35.600  
C09  36424307.473                        -730.000          23.200  
C10  37803368.669                        -248.121          37.600  
C12  22490589.585                        2108.850          19.900  
C13  38631052.775                        1510.337          36.600  
C16  37806238.282                       -1110.848          30.300  
C24  25264317.373                        2030.696          27.100  
C26  22596589.903                        1198.317          30.400  
C35  22987013.518                       -2193.047          32.000  
E02                                                                  27083798.273                         625.050          28.700    27081867.010                         466.600          23.500  
E05                                                                  25149586.200                       -2086.550          26.100  
E11                                                                  23190351.050                         -32.777          29.900    23188436.276                         -24.494          28.700  
E25                                                                  25595419.856                         282.421          41.000    25593513.476                         210.899          41.700  
E36                                                                                                                                  24686825.663                        1620.847          32.400  
G01  22284355.758                        -804.036          41.300    22282005.085                        -600.289          42.500  
G07  20551666.873                         -53.350          27.600  
G13  23480529.464                        2195.559          30.500  
G14  22390532.653                          44.796          42.900    22388181.381                          33.586          25.100  
G17  20376649.835                        -244.872          30.500  
G19  21422477.924                        1707.700          25.600  
G30  20712257.899                        1183.773          40.200    20709900.930                         883.940          33.000  
J02  40812536.965                        1453.122          40.800    40810194.686                        1085.241          33.500  
J03  42024921.649                        -657.871          40.400    42022580.869                        -491.183          38.400  
R02  22514889.862                       -2762.250          24.900  
R03  22528959.422                       -1072.550          23.200  
R12  21927245.680                         329.897          41.000  
R13  21877343.726                        1741.207          36.000  
R23  19484680.633                        -711.878          31.100  
R24  20021405.366                        2734.706          29.900  
> 2022  3 11  7 40 36.4377569  0 32
C01  40335310.099                          -4.450          35.000  
C03  36917427.550                           5.150          36.400  
C07  38229958.204                        -217.103          37.100  
C08  38644179.045                        1664.525          32.200  
C10  37803417.992                        -252.626          34.600  
C13  38630763.932                        1505.114          35.000  
C16  37806456.089                       -1114.050          27.900  
C21  25661479.281                       -1577.600          21.800  
C24  25265811.696                        2026.166          40.600  
C26  22596354.723                        1193.439          39.800  
C35  22985542.893                       -2198.161          28.400  
E02                                                                  27083693.802                         619.550          24.300    27081754.445                         463.500          22.700  
E03                                                                  25440451.595                        -241.650          21.200  
E05                                                                  25149988.978                       -2090.850          25.900    25148083.198                       -1560.850          23.400  
E11                                                                  23190352.407                         -37.954          29.500    23188444.527                         -28.518          29.200  
E25                                                                  25595365.451                         277.725          41.200    25593460.569                         207.573          42.000  
E36                                                                  24688320.585                        2166.050          21.500    24686412.706                        1617.310          31.000  
G01  22284507.910                        -809.296          39.500    22282158.436                        -604.210          41.700  
G07  20551691.913                         -55.850          25.900  
G13  23480092.224                        2189.550          26.300  
G14  22390525.315                          40.384          42.600    22388177.341                          29.917          26.300  
G17  20376699.158                        -249.981          32.100  
G19  21422170.493                        1698.880          29.000  
G30  20712036.509                        1178.744          40.400    20709675.643                         880.198          33.600  
J02  40812261.613                        1448.586          40.000    40809918.735                        1081.704          35.100  
J03  42025045.620                        -662.698          40.200    42022706.339                        -494.776          40.000  
R02  22515375.683                       -2764.500          28.200  
R03  22529136.757                       -1076.650          25.700  
R12  21927178.084                         325.001          39.500  
R13  21877007.816                        1736.656          35.600  
R23  19484793.512                        -716.100          28.300  
R24  20020837.416                        2731.950          27.000  
> 2022  3 11  7 40 37.4377569  0 36
C01  40335303.021                          16.250          33.800  
C06  37885168.214                       -1083.350          25.000  
C07  38230007.786                        -213.350          35.300  
C08  38643859.583                        1667.800          29.000  
C09  36424588.652                        -733.100          23.500  
C10  37803463.377                        -249.059          38.200  
C12  22489768.427                        2108.000          24.500  
C13  38630474.449                        1508.127          36.600  
C14  25959071.978                        -593.000          20.500  
C16  37806670.557                       -1111.185          32.300  
C24  25263540.585                        2031.191          33.700  
C26  22594245.799                        1197.838          29.500  
C34  25046832.309                        2942.400          18.500  
C35  22985968.715                       -2193.624          24.700  
E02                                                                  27083637.258                         623.050          21.300  
E03                                                                  25440478.393                        -237.120          31.900    25438563.319                        -177.050          25.300  
E05                                                                  25150395.014                       -2087.050          25.600    25148484.436                       -1559.150          23.000  
E11                                                                  23190358.519                         -35.028          33.200    23188448.841                         -24.664          28.400  
E25                                                                  25595314.602                         282.082          38.200    25593407.323                         210.833          36.100  
E36                                                                  24687914.183                        2169.600          27.900    24686000.907                        1619.345          30.000  
G01  22284652.226                        -806.767          33.800    22282311.447                        -602.416          38.300  
G07  20551702.822                         -56.534          35.300  
G13  23479706.507                        2194.600          27.100  
G14  22390517.337                          45.829          36.200    22388172.960                          33.661          30.600  
G17  20376743.344                        -246.276          32.300  
G19  21421837.840                        1701.900          28.400  
G30  20711810.882                        1182.049          38.600    20709453.314                         882.627          37.000  
J02  40811987.719                        1451.869          37.400    40809641.843                        1084.074          36.800  
J03  42025174.947                        -659.370          38.300    42022832.968                        -492.326          39.500  
J04  38862223.013                        -642.100          22.800    38859892.726                        -480.300          22.900  
R02  22515868.958                       -2761.400          25.200  
R03  22529321.245                       -1072.300          23.900  
R12  21927114.644                         328.691          31.900  
R13  21876709.039                        1740.739          30.700  
R23  19484936.329                        -714.942          30.400  
R24  20020379.450                        2731.559          31.300  
> 2022  3 11  7 40 38.4377569  0 26
C02  35927638.609                         -36.250          28.000  
C07  38230039.890                        -208.092          32.600  
C08  38643533.434                        1671.700          26.800  
C10  37803513.468                        -243.833          34.500  
C12  22489338.251                        2112.950          23.300  
C13  38630186.674                        1513.400          30.800  
C16  37806879.838                       -1104.500          24.600  
C24  25263150.880                        2035.371          30.400  
C26  22594017.983                        1202.108          26.800  
C35  22986381.855                       -2189.557          23.800  
E05                                                                  25150782.072                       -2082.550          22.300  
E11                                                                  23190364.840                         -29.700          25.500    23188452.464                         -22.203          26.300  
E25                                                                  25595257.967                         286.951          36.000    25593354.885                         214.312          30.500  
E36                                                                                                                                  24685590.517                        1623.900          23.900  
G01  22284814.440                        -801.532          33.500    22282464.667                        -598.722          32.800  
G07  20551708.244                         -47.500          27.200  
G14  22390528.156                          48.650          27.300    22388156.498                          37.250          22.600  
G17  20376809.025                        -235.950          22.000  
G19  21421524.283                        1705.850          24.700  
G30  20711589.361                        1187.550          28.200    20709227.896                         886.082          31.700  
J02  40811711.336                        1457.512          31.700    40809365.460                        1094.796          25.500  
J03  42025297.888                        -653.682          31.700    42022958.307                        -487.805          24.700  
R02  22516374.434                       -2753.150          22.100  
R12  21927053.213                         333.629          29.800  
R13  21876415.568                        1743.850          24.500  
R24  20019858.136                        2743.550          22.200  
> 2022  3 11  7 40 39.4377569  0 27
C03  36917410.765                          58.500          24.100  
C07  38230081.422                        -207.707          31.900  
C08  38643209.819                        1674.100          25.800  
C09  36424859.251                        -725.700          20.900  
C10  37803560.097                        -243.265          36.300  
C13  38629890.040                        1515.650          29.100  
C16  37807088.954                       -1104.450          23.500  
C24  25264635.614                        2035.850          25.100  
C26  22593784.006                        1202.304          27.600  
C34  25043835.170                        2948.896          23.100  
C35  22986804.123                       -2189.375          24.400  
E05                                                                  25151192.648                       -2081.800          22.000  
