     3.03           OBSERVATION DATA    M: Mixed            RINEX VERSION / TYPE
Geo++ RINEX Logger  Geo++               20220311 071501 UTC PGM / RUN BY / DATE
************************************************************COMMENT
This file was generated by the Geo++ RINEX Logger App       COMMENT
for Android devices (Version 2.1.6). If you encounter       COMMENT
any issues, please send an email to android@geopp.de        COMMENT
Filtering Mode: BEST                                        COMMENT
************************************************************COMMENT
geo                                                         MARKER NAME
GEODETIC                                                    MARKER TYPE
Geo++               Geo++                                   OBSERVER / AGENCY
unknown             OnePlus             IN2011              REC # / TYPE / VERS
unknown             IN2011                                  ANT # / TYPE
  1501545.5146  6066645.6692  1272394.5114                  APPROX POSITION XYZ
        0.0000        0.0000        0.0000                  ANTENNA: DELTA H/E/N
G    8 C1C L1C D1C S1C C5Q L5Q D5Q S5Q                      SYS / # / OBS TYPES
R    4 C1C L1C D1C S1C                                      SYS / # / OBS TYPES
E   12 C1B L1B D1B S1B C1C L1C D1C S1C C5Q L5Q D5Q S5Q      SYS / # / OBS TYPES
C    4 C2I L2I D2I S2I                                      SYS / # / OBS TYPES
J    8 C1C L1C D1C S1C C5Q L5Q D5Q S5Q                      SYS / # / OBS TYPES
  2022     3    11     7    15   19.4405202     GPS         TIME OF FIRST OBS
 24 R01  1 R02 -4 R03  5 R04  6 R05  1 R06 -4 R07  5 R08  6 GLONASS SLOT / FRQ #
    R09 -2 R10 -5 R11  0 R12 -1 R13 -2 R14 -7 R15  0 R16 -1 GLONASS SLOT / FRQ #
    R17  4 R18 -3 R19  3 R20  2 R21  4 R22 -3 R23  3 R24  2 GLONASS SLOT / FRQ #
G L1C                                                       SYS / PHASE SHIFT
G L5Q -0.25000                                              SYS / PHASE SHIFT
R L1C                                                       SYS / PHASE SHIFT
E L1B                                                       SYS / PHASE SHIFT
E L1C +0.50000                                              SYS / PHASE SHIFT
E L5Q -0.25000                                              SYS / PHASE SHIFT
C L2I                                                       SYS / PHASE SHIFT
J L1C                                                       SYS / PHASE SHIFT
J L5Q -0.25000                                              SYS / PHASE SHIFT
 C1C    0.000 C1P    0.000 C2C    0.000 C2P    0.000        GLONASS COD/PHS/BIS
                                                            END OF HEADER
> 2022  3 11  7 15 19.4405202  3  1
geo                                                         MARKER NAME
> 2022  3 11  7 15 19.4405202  0 27
C06  37596244.471                        -506.850          20.700  
C24  25825254.558                        2196.755          34.800  
C26  22957357.762                        1653.176          38.300  
E02                                                                  27241054.121                         863.671          29.900    27239145.642                         644.992          32.500  
E03                                                                  25456903.462                         745.928          40.900  
E05                                                                  24582248.773                       -1433.000          25.300    24580326.804                       -1070.750          22.700  
E11                                                                  23276483.236                        1004.287          31.200  
E25                                                                  25646582.450                         458.576          42.900  
E36                                                                  25357362.173                        2820.950          24.600    25355464.487                        2106.621          25.700  
G01  22184689.769                         489.405          30.600    22182335.798                         363.612          36.300  
G07  20648736.687                        1087.038          45.100  
G09  22668169.862                       -2703.300          24.500    22665830.882                       -2021.137          25.800  
G13  24207633.514                        3202.772          37.100  
G14  22390079.081                         348.290          46.000    22387731.106                         260.033          41.500  
G17  20432320.109                        1029.301          36.900  
G19  22020109.106                        2804.150          27.400  
G21  24303354.548                       -1809.264          40.000  
G30  21136962.195                        2111.627          48.800    21134608.225                        1576.826          41.000  
J02  41221239.540                        1760.896          36.300    41218890.066                        1315.059          28.000  
J03  41833740.414                        -277.506          34.700    41831399.934                        -207.246          29.100  
R02  21741494.586                       -2235.863          32.700  
R03  22338612.810                         157.678          29.200  
R12  22048070.748                         876.869          39.700  
R13  22342694.784                        1906.562          34.200  
R22  22599866.048                       -3050.729          33.100  
R23  19480297.680                        1069.867          31.900  
R24  20923455.103                        3962.251          29.400  
> 2022  3 11  7 15 20.4405205  0 26
C06  37596429.923                        -506.800          20.200  
C21  25165118.041                       -1430.700          24.300  
E02                                                                  27240981.751                         861.374          30.500    27239071.473                         643.160          31.200  
E03                                                                  25456852.078                         743.173          39.700  
E05                                                                  24582621.895                       -1436.350          22.600  
E11                                                                  23276385.683                        1001.170          34.200  
E25                                                                  25646583.829                         456.209          42.400  
E36                                                                  25356928.553                        2817.650          25.200    25355017.376                        2104.506          25.700  
G01  22184671.062                         483.235          30.300    22182333.580                         361.129          38.900  
G07  20648622.346                        1084.037          43.900  
G09                                                                  22666440.240                       -2023.118          25.900  
G13  24207118.950                        3200.084          35.800  
G14  22390093.051                         345.846          44.500    22387754.970                         258.283          42.500  
G17  20432220.458                        1026.166          39.200  
G19  22019629.917                        2803.722          29.800  
G21  24303792.125                       -1812.475          38.900  
G30  21136651.191                        2108.815          48.100    21134296.920                        1574.742          41.500  
J02  41220990.892                        1758.264          36.900    41218643.517                        1312.971          32.500  
J03  41833876.999                        -280.255          35.500    41831541.316                        -209.359          32.200  
R02  21742012.808                       -2238.655          29.800  
R03  22338740.701                         152.750          21.800  
R12  22047992.082                         874.114          39.900  
R13  22342416.157                        1904.154          32.800  
R22  22600537.163                       -3053.990          33.600  
R23  19480189.036                        1066.368          33.600  
R24  20922793.941                        3959.384          31.900  
> 2022  3 11  7 15 21.4405207  0 29
C01  40338697.357                         376.350          33.700  
C06  37596586.281                        -506.650          19.900  
C16  37510026.305                        -543.550          23.600  
C21  25165476.759                       -1432.000          24.200  
C34  25942138.887                        3562.400          17.100  
E02                                                                  27240870.993                         860.180          30.000    27238967.611                         642.223          31.300  
E03                                                                  25456771.899                         741.474          40.100  
E05                                                                  24582951.233                       -1437.050          25.300    24581025.366                       -1071.700          19.700  
E11                                                                  23276254.840                         999.564          35.200  
E25                                                                  25646558.513                         455.073          41.500  
E36                                                                  25356440.957                        2816.950          25.700    25354539.373                        2103.312          24.900  
G01  22184663.433                         481.989          33.900    22182301.968                         359.786          39.700  
G07  20648474.414                        1082.409          43.900  
G09  22669394.560                       -2710.550          22.700    22667015.407                       -2023.850          23.300  
G13  24206566.598                        3198.481          36.200  
G14  22390090.519                         344.707          44.100    22387749.139                         257.338          42.600  
G17  20432076.423                        1024.463          39.500  
G19  22019168.702                        2802.091          29.400  
G21  24304197.010                       -1814.003          39.300  
G30  21136310.193                        2107.347          47.700    21133955.623                        1573.554          41.500  
J02  41220716.747                        1757.162          37.000    41218369.372                        1312.090          31.900  
J03  41833987.489                        -281.475          36.200    41831653.904                        -210.274          31.100  
R02  21742450.670                       -2239.975          29.100  
R03  22338716.284                         151.600          25.000  
R12  22047883.424                         872.865          39.500  
R13  22342128.822                        1903.116          33.500  
R22  22601158.799                       -3055.703          33.500  
R23  19480053.395                        1064.385          33.700  
R24  20922112.678                        3957.756          31.300  
> 2022  3 11  7 15 22.4405209  0 33
C01  40338673.259                         407.350          32.800  
C07  38147101.353                          18.400          37.400  
C09  36250429.291                         -86.600          26.100  
C10  37710845.466                         -11.500          44.000  
C16  37510167.093                        -541.750          26.500  
C21  25165806.416                       -1430.050          22.100  
C24  25824201.619                        2191.336          35.600  
C26  22956616.606                        1647.284          38.200  
C35  22437219.278                       -1188.550          42.200  
E02                                                                  27240779.142                         857.650          27.700    27238864.368                         640.825          31.900  
E03                                                                  25456691.740                         738.837          40.200  
E05                                                                  24583286.886                       -1439.700          25.800  
E11                                                                  23276124.316                         996.910          36.600  
E25                                                                  25646530.218                         452.953          42.000  
E36                                                                  25355971.068                        2814.100          27.500    25354061.390                        2101.903          25.100  
G01  22184615.951                         478.995          37.000    22182269.476                         357.656          38.900  
G07  20648321.406                        1079.669          43.400  
G09                                                                  22667586.998                       -2025.500          23.300  
G13  24206017.264                        3195.817          36.900  
G14  22390090.404                         342.343          44.900    22387743.929                         255.706          41.800  
G17  20431943.801                        1021.565          38.900  
G19  22018696.115                        2799.319          30.800  
G21  24304606.413                       -1816.696          40.100  
G30  21135968.015                        2104.704          48.100    21133614.944                        1571.669          42.400  
J02  41220434.828                        1754.909          39.000    41218096.447                        1310.520          30.000  
J03  41834107.591                        -283.768          34.500    41831768.910                        -211.939          30.500  
R02  21742948.212                       -2243.650          27.400  
R03  22338762.938                         151.900          27.600  
R12  22047790.074                         870.460          37.800  
R13  22341821.420                        1900.956          33.600  
R22  22601790.348                       -3058.525          34.400  
R23  19479901.886                        1061.071          33.600  
R24  20921425.740                        3954.921          32.400  
> 2022  3 11  7 15 23.4405212  0 34
C01  40338689.618                         385.550          32.500  
C07  38147191.460                          15.891          37.000  
C08  39130479.544                        2038.400          25.500  
C09  36250544.282                         -94.950          25.000  
C10  37710936.773                         -14.120          43.600  
C16  37510365.726                        -549.050          27.500  
C21  25166158.842                       -1440.550          25.700  
C24  25823872.017                        2186.108          35.500  
C26  22958271.631                        1641.790          44.300  
C35  22437542.024                       -1194.592          41.000  
E02                                                                  27240703.165                         853.050          26.100    27238791.988                         636.624          31.500  
E03                                                                  25456640.046                         733.151          39.100  
E05                                                                  24583659.998                       -1446.500          25.200    24581721.839                       -1076.900          19.300  
E11                                                                  23276023.456                         991.205          35.400  
E25                                                                  25646534.285                         447.794          41.000  
E36                                                                  25355520.650                        2808.650          26.600    25353619.366                        2098.400          23.800  
G01  22184613.723                         472.968          37.200    22182268.746                         353.122          38.900  
G07  20648209.154                        1073.878          42.900  
G09                                                                  22668196.046                       -2030.274          25.200  
G13  24205508.387                        3190.071          37.000  
G14  22390113.958                         337.013          44.200    22387769.281                         251.646          41.900  
G17  20431840.842                        1015.607          38.900  
G19  22018263.984                        2793.604          30.100  
G21  24305044.579                       -1822.613          39.400  
G30  21135657.001                        2099.068          48.100    21133304.829                        1567.474          42.300  
J02  41220195.164                        1749.438          39.500    41217853.785                        1306.418          30.800  
J03  41834251.961                        -289.249          34.500    41831912.981                        -216.075          32.200  
R02  21743445.737                       -2248.150          28.300  
R03  22338798.783                         143.479          29.700  
R12  22047737.780                         864.875          38.500  
R13  22341551.777                        1895.615          34.100  
R22  22602457.556                       -3064.661          34.000  
R23  19479808.521                        1054.874          32.800  
R24  20920788.851                        3948.845          32.300  
> 2022  3 11  7 15 24.4405214  0 34
C01  40338682.795                         365.850          33.100  
C02  35928730.042                         356.150          31.800  
C07  38147248.194                           9.463          37.500  
C08  39130153.443                        2034.850          24.600  
C09  36250603.414                         -99.305          31.000  
C10  37710999.802                         -20.610          39.700  
C16  37510528.586                        -556.100          27.700  
C24  25825385.442                        2179.379          42.800  
C26  22958018.079                        1635.215          44.000  
C35  22437831.996                       -1201.699          36.100  
E02                                                                  27240601.608                         844.900          27.900    27238687.433                         631.830          30.200  
E03                                                                  25456562.772                         725.660          40.300  
E05                                                                  24583979.349                       -1452.250          26.600    24582060.678                       -1085.550          24.700  
E11                                                                  23275894.318                         984.073          36.500  
E25                                                                  25646510.674                         441.107          40.400  
E36                                                                  25355057.243                        2802.850          24.800    25353140.970                        2092.544          25.300  
G01  22184585.315                         465.792          36.200    22182239.140                         347.888          37.100  
G07  20648066.825                        1066.718          42.700  
G09  22671132.286                       -2723.900          27.400    22668773.219                       -2035.307          26.100  
G13  24204952.344                        3182.666          36.200  
G14  22390109.234                         330.245          43.400    22387764.857                         246.467          39.500  
G17  20431698.813                        1008.019          38.000  
G19  22017779.892                        2787.617          29.600  
G21  24305444.275                       -1829.685          39.000  
G30  21135318.608                        2092.083          46.300    21132966.136                        1562.134          41.800  
J02  41219922.725                        1743.341          30.800    41217579.248                        1301.639          29.800  
J03  41834366.555                        -295.636          36.100    41832028.473                        -220.817          31.400  
R02  21743947.363                       -2253.750          28.200  
R03  22338830.334                         135.850          26.900  
R12  22047621.234                         858.303          40.200  
R13  22341256.554                        1888.930          32.200  
R22  22603089.891                       -3070.702          30.400  
R23  19479667.991                        1046.975          36.000  
R24  20920135.975                        3941.592          30.500  
> 2022  3 11  7 15 25.4405217  0 35
C01  40338696.833                         376.650          33.300  
C06  37597293.567                        -536.950          26.400  
C07  38147340.178                           5.297          37.100  
C08  39129852.399                        2031.850          23.700  
C09  36250725.677                         -99.900          28.700  
C10  37711093.585                         -24.680          38.200  
C14  25840525.508                         152.850          29.400  
C16  37510734.491                        -560.600          28.500  
C21  25166862.176                       -1450.950          27.600  
C24  25825061.014                        2174.190          40.800  
C26  22957788.985                        1630.878          44.200  
C35  22438154.221                       -1205.975          42.100  
E02                                                                  27240519.413                         840.772          34.700    27238618.728                         628.363          24.800  
E03                                                                  25456516.852                         719.822          43.000  
E05                                                                  24584341.446                       -1457.900          27.700    24582428.171                       -1088.314          29.500  
E11                                                                  23275804.627                         980.301          35.600  
E25                                                                  25646516.318                         436.628          42.800  
E36                                                                  25354625.490                        2798.850          26.700    25352704.420                        2090.400          24.100  
G01  22184589.160                         461.782          39.000    22182243.284                         345.143          37.500  
G07  20647952.851                        1062.700          39.100  
G13  24204438.747                        3177.008          37.800  
G14  22390141.859                         325.238          46.600    22387793.285                         242.967          43.700  
G17  20431601.029                        1002.570          39.200  
G19  22017316.061                        2781.540          30.800  
G21  24305886.117                       -1834.219          32.800  
G30  21135006.771                        2087.524          42.800    21132657.897                        1558.794          38.100  
J02  41219681.640                        1740.010          38.700    41217337.563                        1299.308          35.500  
J03  41834513.701                        -298.926          37.100    41832175.919                        -223.398          39.000  
R02  21744442.268                       -2259.059          31.600  
R03  22338861.160                         129.720          36.800  
R12  22047547.432                         854.841          43.900  
R13  22341023.563                        1884.775          33.600  
R22  22603743.985                       -3074.100          27.300  
R23  19479564.210                        1042.326          34.700  
R24  20919467.086                        3936.510          30.700  
> 2022  3 11  7 15 26.4405219  0 36
C01  40338689.302                         377.150          36.700  
C07  38147407.595                           2.326          31.900  
C08  39129535.482                        2028.350          22.200  
C09  36250824.871                        -103.750          27.700  
C10  37711161.002                         -27.435          42.500  
C14  25840557.849                         153.250          29.800  
C16  37510902.638                        -564.150          27.800  
C21  25167220.991                       -1456.200          25.400  
C24  25822827.524                        2173.175          39.800  
C26  22957538.022                        1628.271          45.400  
C34  25939069.351                        3542.050          20.800  
C35  22438450.079                       -1209.547          43.800  
E02                                                                  27240423.742                         839.471          34.800    27238530.853                         627.950          21.600  
E03                                                                  25456442.167                         718.242          44.800  
E05                                                                  24584682.873                       -1459.150          26.100    24582759.405                       -1090.443          27.500  
E11                                                                  23275672.083                         976.652          31.500  
E25                                                                  25646493.197                         434.390          39.100  
E36                                                                  25354195.851                        2794.100          25.200    25352230.411                        2087.550          24.100  
G01  22184561.843                         457.671          41.100    22182217.466                         341.391          31.700  
G07  20647817.309                        1058.574          38.600  
G09  22672325.971                       -2732.478          28.600  
G13  24203887.692                        3175.689          33.400  
G14  22390139.424                         323.538          45.600    22387792.349                         241.608          43.200  
G17  20431459.790                        1000.007          41.200  
G19  22016847.749                        2778.676          31.500  
G21  24306303.991                       -1838.012          32.600  
G30  21134676.963                        2084.413          41.900    21132320.894                        1556.559          40.800  
J02  41219402.197                        1735.848          36.000    41217067.113                        1296.282          34.900  
J03  41834644.973                        -303.018          38.200    41832294.600                        -226.245          39.300  
R02  21744938.687                       -2262.732          29.500  
R03  22338890.503                         127.867          37.100  
R12  22047446.366                         850.772          41.500  
R13  22340693.755                        1881.550          28.400  
R22  22604351.628                       -3081.600          23.000  
R23  19479424.470                        1037.715          33.000  
R24  20918755.642                        3933.144          29.100  
> 2022  3 11  7 15 27.4405221  0 37
C01  40338675.681                         390.750          36.700  
C02  35928723.528                         358.550          29.800  
C06  37597621.074                        -534.750          26.700  
C07  38147446.138                           4.409          35.000  
C08  39129204.681                        2027.300          22.600  
C09  36250885.899                        -105.313          33.000  
C10  37711227.126                         -25.470          42.000  
C14  25840579.005                         152.800          28.300  
C16  37511071.291                        -561.200          29.200  
C21  25167554.230                       -1455.150          26.600  
C24  25822469.142                        2175.117          40.100  
C26  22957282.469                        1630.144          46.100  
C35  22438740.449                       -1208.279          37.400  
E02                                                                  27240324.681                         841.372          33.900    27238422.198                         628.450          26.400  
E03                                                                  25456363.192                         719.719          43.500  
E05                                                                                                                                  24583095.043                       -1088.841          27.500  
E11                                                                  23275542.443                         978.200          27.900  
E25                                                                  25646470.583                         436.528          38.000  
E36                                                                  25353701.363                        2796.950          25.800  
G01  22184544.924                         457.966          30.600    22182189.455                         342.809          31.300  
G07  20647681.373                        1060.185          35.000  
G09  22672895.147                       -2730.866          33.800  
G13  24203359.928                        3177.033          37.200  
G14  22390135.697                         325.470          40.300    22387789.821                         243.039          43.700  
G17  20431330.450                        1001.418          40.200  
G19  22016377.244                        2780.253          30.700  
G21  24306705.283                       -1836.090          34.700  
G30  21134338.667                        2086.080          41.300    21131984.397                        1557.899          42.500  
J02  41219140.648                        1737.651          30.300    41216796.871                        1297.969          32.000  
J03  41834755.167                        -301.038          38.600    41832411.389                        -224.757          38.500  
R02  21745450.004                       -2261.550          26.900  
R03  22338926.049                         129.240          34.900  
R12  22047344.306                         852.748          36.400  
R13  22340426.810                        1884.535          29.200  
R22  22605036.524                       -3077.950          28.700  
R23  19479286.136                        1039.178          35.100  
R24  20918061.792                        3935.312          29.800  
> 2022  3 11  7 15 28.4405224  0 37
C01  40338688.278                         368.950          33.000  
C06  37597807.850                        -534.764          30.000  
C07  38147544.175                           4.315          40.500  
C08  39128897.998                        2027.650          23.100  
C09  36250985.136                        -105.856          32.400  
C10  37711316.170                         -25.609          41.100  
C12  23185538.456                        3023.200          22.300  
C14  25840649.761                         152.650          28.200  
C21  25167936.171                       -1454.000          25.500  
C24  25822141.774                        2175.317          41.200  
C26  22957061.228                        1630.007          46.100  
C34  25935955.882                        3535.012          15.600  
C35  22439066.628                       -1208.939          38.900  
E02                                                                  27240248.239                         841.477          29.400    27238344.857                         627.800          25.000  
E03                                                                  25456315.830                         719.347          42.100  
E05                                                                  24585388.460                       -1459.050          27.900    24583463.493                       -1088.750          24.200  
E11                                                                  23275445.915                         976.250          29.000  
E25                                                                  25646468.790                         436.494          32.700  
E36                                                                                                                                  25351315.320                        2088.050          20.400  
G01  22184535.636                         458.195          36.600    22182193.358                         342.176          32.500  
G07  20647567.757                        1059.536          38.200  
G09  22673496.236                       -2731.111          34.800    22671158.154                       -2032.307          24.100  
G13  24202844.290                        3176.587          37.200  
G14  22390162.084                         325.373          36.100    22387817.707                         242.900          43.300  
G17  20431236.920                        1000.624          39.400  
G19  22015930.559                        2779.683          29.900  
G21  24307136.090                       -1836.750          25.300  
G30  21134034.683                        2085.658          38.400    21131678.914                        1557.440          45.400  
J02  41218887.928                        1737.662          31.600    41216554.044                        1297.434          28.200  
J03  41834905.668                        -301.424          36.200    41832557.993                        -225.019          39.300  
R02  21745946.465                       -2261.550          27.400  
R03  22338989.910                         128.452          32.200  
R12  22047276.858                         852.525          40.800  
R13  22340151.905                        1887.150          28.100  
R22  22605720.056                       -3079.100          27.700  
R23  19479174.319                        1038.080          36.400  
R24  20917458.915                        3933.900          27.800  
> 2022  3 11  7 15 29.4405226  0 36
C01  40338677.639                         380.900          33.000  
C06  37597966.894                        -538.537          30.000  
C07  38147602.489                           1.357          40.800  
C08  39128567.481                        2027.200          22.800  
C09  36251070.431                        -109.163          33.500  
C10  37711379.580                         -28.750          41.200  
C13  39060398.274                        1805.600          29.100  
C14  25840680.194                         145.050          29.200  
C21  25168290.980                       -1454.150          26.600  
C24  25821784.276                        2171.789          40.900  
C26  22956808.657                        1626.683          46.600  
C35  22439359.380                       -1212.366          38.900  
E02                                                                  27240148.562                         837.809          30.400    27238247.578                         625.509          25.400  
E03                                                                  25456238.937                         715.233          42.500  
E05                                                                  24585727.380                       -1462.750          28.300    24583804.211                       -1091.550          23.600  
E11                                                                  23275322.254                         973.643          30.100  
E25                                                                  25646451.256                         433.298          31.900  
E36                                                                  25352771.266                        2793.050          22.300    25350850.496                        2084.900          22.600  
G01  22184516.004                         454.433          37.900    22182167.130                         339.259          33.300  
G07  20647415.317                        1056.111          37.100  
G09  22674080.985                       -2734.689          35.900    22671741.105                       -2041.950          23.200  
G13  24202297.623                        3172.549          38.400  
G14  22390159.240                         321.802          35.900    22387815.762                         240.467          43.800  
G17  20431112.360                         996.620          40.000  
G19  22015475.328                        2775.710          31.600  
G21  24307558.352                       -1843.250          25.400  
G30  21133692.474                        2082.141          38.400    21131342.101                        1554.880          45.000  
J02  41218624.565                        1734.755          32.600    41216284.085                        1295.757          30.100  
J03  41835021.242                        -304.183          35.300    41832675.966                        -227.185          39.700  
R02  21746453.568                       -2268.050          28.500  
R03  22339039.829                         124.216          33.400  
R12  22047180.180                         849.426          40.600  
R13  22339843.873                        1880.050          28.400  
R22  22606351.873                       -3083.083          29.400  
R23  19479054.256                        1033.921          37.600  
R24  20916761.452                        3931.950          28.700  
> 2022  3 11  7 15 30.4405228  0 38
C01  40338665.510                         359.750          33.600  
C02  35928728.946                         335.150          28.600  
C06  37598135.240                        -543.798          31.900  
C07  38147659.612                          -3.845          38.300  
C08  39128234.574                        2027.600          22.800  
C09  36251154.535                        -114.759          34.300  
C10  37711448.994                         -33.927          42.000  
C13  39060111.535                        1799.000          27.600  
C14  25840701.342                         144.850          28.400  
C16  37511619.333                        -568.300          23.100  
C21  25168612.519                       -1463.850          27.200  
C24  25823301.687                        2166.734          37.300  
C26  22954679.393                        1621.333          31.900  
C35  22439644.944                       -1218.227          35.600  
E02                                                                  27240050.992                         832.733          33.400    27238153.006                         621.646          25.700  
E03                                                                  25456161.453                         709.573          42.500  
E05                                                                  24586060.312                       -1466.150          25.800    24584139.841                       -1096.295          25.700  
E11                                                                  23275195.005                         967.761          30.000  
E25                                                                  25646430.133                         428.066          34.500  
E36                                                                  25352319.641                        2788.000          22.300  
G01  22184482.889                         448.441          35.500    22182139.711                         334.822          33.600  
G07  20647281.771                        1050.255          34.800  
G09  22674664.544                       -2740.068          36.100    22672312.672                       -2047.300          23.800  
G13  24201751.863                        3167.009          39.700  
G14  22390163.300                         316.683          36.400    22387815.025                         236.404          44.300  
G17  20430977.316                         990.674          39.900  
G19  22015003.018                        2769.897          31.100  
G21  24307966.232                       -1847.226          29.900  
G30  21133353.571                        2076.551          39.000    21131005.896                        1550.555          44.500  
J02  41218361.509                        1729.529          29.100    41216014.734                        1291.338          30.500  
J03  41835137.124                        -309.646          35.900    41832794.546                        -231.401          39.600  
R02  21746900.121                       -2270.600          27.000  
R03  22339061.876                         118.268          36.000  
R12  22047090.104                         843.978          40.100  
R13  22339572.723                        1876.199          29.900  
R22  22606983.698                       -3088.951          29.300  
R23  19478919.512                        1027.653          38.000  
R24  20916087.681                        3924.950          31.400  
> 2022  3 11  7 15 31.4405231  0 40
C01  40338686.777                         361.000          34.600  
C02  35928750.812                         369.100          32.900  
C06  37598336.082                        -548.527          31.700  
C07  38147750.431                          -8.402          37.800  
C08  39127934.164                        2012.200          26.600  
C09  36251269.337                        -119.511          34.000  
C10  37711548.507                         -38.402          41.700  
C12  23184016.708                        3008.000          24.400  
C13  39059855.793                        1793.300          26.000  
C14  25840754.686                         137.050          26.000  
C16  37511812.381                        -573.550          28.700  
C21  25168963.558                       -1465.800          27.400  
C24  25822977.893                        2162.402          38.400  
C26  22956336.028                        1616.861          46.300  
C34  25934126.846                        3527.448          18.100  
C35  22439970.201                       -1223.312          36.500  
E02                                                                  27239984.420                         828.218          33.700    27238088.233                         618.467          27.000  
E03                                                                  25456118.565                         704.631          42.800  
E05                                                                  24586431.436                       -1474.150          23.300    24584510.666                       -1099.605          25.900  
E11                                                                  23275107.147                         962.707          31.700  
E25                                                                  25646442.706                         423.660          34.800  
E36                                                                  25351895.717                        2782.350          23.200    25349931.476                        2079.400          19.600  
G01  22184506.255                         443.299          34.700    22182145.989                         331.052          33.300  
G07  20647173.228                        1045.068          35.600  
G09  22675268.607                       -2744.794          35.100    22672926.029                       -2049.634          24.300  
G13  24201241.298                        3162.135          40.200  
G14  22390190.562                         312.136          35.700    22387845.586                         233.039          44.200  
G17  20430879.265                         985.557          39.700  
G19  22014570.099                        2765.059          31.500  
G21  24308411.106                       -1850.961          32.000  
G30  21133048.963                        2071.584          39.400    21130701.588                        1546.895          44.300  
J02  41218125.254                        1724.876          30.200    41215776.081                        1287.839          30.700  
J03  41835290.300                        -314.480          36.300    41832944.424                        -234.868          39.000  
R02  21747383.368                       -2275.700          26.300  
R03  22339144.001                         112.901          36.000  
R12  22047017.536                         839.084          39.600  
R13  22339293.598                        1871.720          29.500  
R22  22607644.722                       -3094.213          30.400  
R23  19478816.964                        1021.948          37.800  
R24  20915451.203                        3919.916          30.900  
> 2022  3 11  7 15 32.4405233  0 38
C01  40338679.867                         369.950          34.000  
C06  37598498.555                        -550.251          31.300  
C07  38147812.173                          -9.762          38.300  
C08  39127603.478                        2013.350          24.300  
C09  36251350.566                        -121.122          33.200  
C10  37711615.346                         -39.829          41.000  
C12  23183499.851                        3008.350          23.300  
C13  39059567.678                        1793.100          26.200  
C14  25840793.345                         132.450          27.500  
C16  37511978.452                        -580.800          24.500  
C21  25167416.015                       -1468.543          24.200  
C24  25820746.523                        2161.118          40.600  
C26  22956086.586                        1615.338          45.800  
C35  22440265.482                       -1225.078          35.600  
E02                                                                  27239886.673                         826.649          33.100    27237988.987                         617.176          24.700  
E03                                                                  25456043.602                         702.775          42.100  
E05                                                                  24586768.988                       -1473.650          26.500    24584850.317                       -1101.123          27.200  
E11                                                                  23274978.222                         960.732          31.700  
E25                                                                  25646422.905                         422.331          34.700  
E36                                                                  25351431.623                        2781.400          23.900  
G01  22184469.366                         441.279          35.500    22182122.590                         329.582          33.100  
G07  20647041.305                        1043.164          35.400  
G09  22675857.685                       -2746.533          35.000    22673513.308                       -2051.450          22.900  
G13  24200694.162                        3160.275          39.500  
G14  22390198.043                         310.758          36.200    22387846.171                         231.979          44.000  
G17  20430756.936                         983.450          39.000  
G19  22014106.905                        2762.978          31.400  
G21  24308826.904                       -1852.832          30.100  
G30  21132712.882                        2069.828          38.700    21130367.305                        1545.650          44.500  
J02  41217847.932                        1723.886          30.200    41215507.752                        1287.014          29.800  
J03  41835406.605                        -315.762          35.100    41833063.727                        -235.858          39.200  
R02  21747886.406                       -2281.800          26.900  
R03  22339189.255                         110.822          35.700  
R12  22046916.192                         837.677          38.600  
R13  22339007.581                        1872.650          28.300  
R22  22608267.077                       -3096.143          29.400  
R23  19478686.840                        1019.572          37.800  
R24  20914767.662                        3917.926          29.700  
> 2022  3 11  7 15 33.4405235  0 38
C01  40338665.199                         356.300          32.800  
C06  37598664.062                        -549.334          31.000  
C07  38147875.751                          -8.799          38.400  
C08  39127277.625                        2009.900          24.600  
C09  36251433.331                        -120.445          32.900  
C10  37711682.521                         -38.884          40.600  
C12  23182980.932                        3009.000          22.600  
C13  39059299.985                        1793.900          23.100  
C14  25840829.941                         134.650          28.200  
C16  37512156.550                        -578.450          25.100  
C21  25167757.799                       -1466.828          24.200  
C24  25820391.890                        2162.165          41.000  
C26  22953957.781                        1616.337          30.900  
C35  22438683.498                       -1224.750          36.600  
E02                                                                  27239788.962                         827.619          32.100    27237889.777                         618.178          25.600  
E03                                                                  25455971.373                         703.287          41.700  
E05                                                                  24587101.479                       -1473.750          23.900    24585192.701                       -1100.317          25.400  
E11                                                                  23274854.129                         961.189          31.000  
E25                                                                  25646403.440                         423.370          34.200  
E36                                                                  25350968.765                        2781.200          22.700    25348995.231                        2077.500          20.100  
G01  22184442.106                         441.584          34.200    22182098.029                         329.735          34.400  
G07  20646900.424                        1043.623          33.100  
G09  22676436.305                       -2745.741          34.800    22674101.522                       -2050.800          23.500  
G13  24200159.054                        3160.845          38.800  
G14  22390198.664                         311.624          35.600    22387846.792                         232.726          44.200  
G17  20430626.847                         983.744          38.800  
G19  22013637.751                        2763.482          28.900  
G21  24309237.641                       -1851.874          28.600  
G30  21132380.433                        2070.396          38.100    21130033.358                        1546.094          44.800  
J02  41217597.926                        1724.560          29.300    41215239.759                        1287.651          30.900  
J03  41835525.644                        -315.103          33.300    41833183.965                        -235.206          39.600  
R02  21748407.766                       -2278.600          26.600  
R03  22339236.944                         111.100          34.600  
R12  22046806.489                         838.420          37.100  
R13  22338695.518                        1870.600          28.400  
R22  22608921.845                       -3095.650          27.900  
R23  19478560.649                        1019.578          36.600  
R24  20914089.553                        3918.903          29.000  
> 2022  3 11  7 15 34.4405237  0 40
C01  40338662.308                         336.850          34.400  
C02  35928721.846                         355.750          26.800  
C06  37598835.650                        -552.153          31.700  
C07  38147942.112                         -11.401          39.300  
C08  39126956.654                        2013.000          23.800  
C09  36251506.587                        -123.173          32.800  
C10  37711750.081                         -41.445          41.100  
C12  23182466.894                        3009.450          21.500  
C13  39058999.400                        1789.250          26.800  
C14  25840869.920                         134.600          28.100  
C16  37512332.935                        -571.750          22.300  
C21  25168097.571                       -1469.248          24.100  
C24  25821909.846                        2159.671          33.700  
C26  22955583.063                        1613.541          45.400  
C34  25932271.544                        3519.155          17.600  
C35  22438978.901                       -1227.832          36.200  
E02                                                                  27239687.439                         825.172          31.200    27237790.352                         615.450          23.900  
E03                                                                  25455898.031                         700.182          41.600  
E05                                                                  24587438.853                       -1475.950          24.100    24585533.072                       -1103.200          24.100  
E11                                                                  23274732.820                         958.306          31.100  
E25                                                                  25646382.561                         420.851          33.800  
E36                                                                                                                                  25348524.364                        2075.750          21.300  
G01  22184420.628                         438.372          35.700    22182074.752                         327.327          33.400  
G07  20646752.433                        1040.501          34.400  
G09  22677015.611                       -2748.579          34.900    22674676.031                       -2052.560          23.900  
G13  24199609.941                        3157.756          38.800  
G14  22390199.969                         308.940          35.600    22387847.798                         230.639          43.700  
G17  20430501.041                         980.402          39.100  
G19  22013171.381                        2760.384          29.800  
G21  24309654.459                       -1855.674          28.600  
G30  21132044.472                        2067.389          38.500    21129699.496                        1543.788          44.700  
J02  41217331.218                        1721.720          31.900    41214971.551                        1285.627          30.900  
J03  41835639.072                        -317.722          35.200    41833304.288                        -237.314          39.400  
R02  21748902.231                       -2278.900          28.100  
R03  22339271.227                         107.533          34.200  
R12  22046716.658                         835.600          39.400  
R13  22338409.323                        1868.100          28.300  
R22  22609558.411                       -3099.122          30.500  
R23  19478438.740                        1015.894          37.800  
R24  20913433.114                        3915.197          29.900  
> 2022  3 11  7 15 35.4405239  0 37
C01  40338651.068                         352.100          34.700  
C06  37599001.588                        -557.255          30.900  
C07  38148004.021                         -16.226          39.300  
C08  39126632.131                        2003.850          26.100  
C09  36251594.578                        -128.512          31.900  
C10  37711817.087                         -46.257          41.100  
C12  23181952.603                        3007.700          21.400  
C13  39058735.435                        1783.300          25.200  
C14  25840906.048                         127.950          28.700  
C21  25168446.682                       -1473.784          22.800  
C24  25821554.145                        2154.766          33.000  
C26  22953457.087                        1608.509          30.300  
C35  22441154.047                       -1233.423          34.700  
E02                                                                  27239596.155                         820.164          31.500    27237694.272                         613.250          23.400  
E03                                                                  25455826.533                         694.712          41.900  
E05                                                                  24587781.968                       -1480.950          22.400    24585872.290                       -1106.643          24.600  
E11                                                                  23274610.957                         952.794          30.900  
E25                                                                  25646364.126                         415.906          34.500  
E36                                                                  25350003.992                        2774.100          21.000    25348049.645                        2071.450          22.100  
G01  22184391.700                         432.662          35.200    22182052.420                         323.050          34.000  
G07  20646619.777                        1035.018          32.700  
G09  22677602.457                       -2753.715          34.700    22675255.682                       -2056.393          24.000  
G13  24199073.465                        3152.374          38.100  
G14  22390197.124                         303.970          35.300    22387849.449                         226.986          44.000  
G17  20430368.085                         974.754          38.600  
G19  22012707.455                        2754.823          29.100  
G21  24310055.134                       -1863.300          24.600  
G30  21131711.855                        2062.166          37.800    21129366.879                        1539.879          44.900  
J02  41217063.056                        1716.830          31.300    41214704.888                        1282.053          31.100  
J03  41835767.536                        -322.691          34.000    41833424.658                        -240.983          40.100  
R02  21749400.638                       -2284.740          29.400  
R03  22339324.143                         101.943          33.300  
R12  22046619.977                         830.582          38.800  
R13  22338123.174                        1863.873          29.100  
R22  22610218.706                       -3104.700          29.500  
R23  19478298.290                        1009.937          37.300  
R24  20912723.058                        3909.646          29.500  
> 2022  3 11  7 15 36.4405242  0 37
C01  40338673.508                         361.050          35.800  
C06  37599192.212                        -560.894          30.800  
C07  38148095.714                         -19.453          40.500  
C08  39126339.490                        2006.650          25.900  
