     3.03           OBSERVATION DATA    M: Mixed            RINEX VERSION / TYPE
Geo++ RINEX Logger  Geo++               20220311 072449 UTC PGM / RUN BY / DATE
************************************************************COMMENT
This file was generated by the Geo++ RINEX Logger App       COMMENT
for Android devices (Version 2.1.6). If you encounter       COMMENT
any issues, please send an email to android@geopp.de        COMMENT
Filtering Mode: BEST                                        COMMENT
************************************************************COMMENT
geo                                                         MARKER NAME
GEODETIC                                                    MARKER TYPE
Geo++               Geo++                                   OBSERVER / AGENCY
unknown             OnePlus             IN2011              REC # / TYPE / VERS
unknown             IN2011                                  ANT # / TYPE
  1501540.2900  6066634.9516  1272398.5836                  APPROX POSITION XYZ
        0.0000        0.0000        0.0000                  ANTENNA: DELTA H/E/N
G    8 C1C L1C D1C S1C C5Q L5Q D5Q S5Q                      SYS / # / OBS TYPES
R    4 C1C L1C D1C S1C                                      SYS / # / OBS TYPES
E   12 C1B L1B D1B S1B C1C L1C D1C S1C C5Q L5Q D5Q S5Q      SYS / # / OBS TYPES
C    4 C2I L2I D2I S2I                                      SYS / # / OBS TYPES
J    8 C1C L1C D1C S1C C5Q L5Q D5Q S5Q                      SYS / # / OBS TYPES
  2022     3    11     7    25    7.4377552     GPS         TIME OF FIRST OBS
 24 R01  1 R02 -4 R03  5 R04  6 R05  1 R06 -4 R07  5 R08  6 GLONASS SLOT / FRQ #
    R09 -2 R10 -5 R11  0 R12 -1 R13 -2 R14 -7 R15  0 R16 -1 GLONASS SLOT / FRQ #
    R17  4 R18 -3 R19  3 R20  2 R21  4 R22 -3 R23  3 R24  2 GLONASS SLOT / FRQ #
G L1C                                                       SYS / PHASE SHIFT
G L5Q -0.25000                                              SYS / PHASE SHIFT
R L1C                                                       SYS / PHASE SHIFT
E L1B                                                       SYS / PHASE SHIFT
E L1C +0.50000                                              SYS / PHASE SHIFT
E L5Q -0.25000                                              SYS / PHASE SHIFT
C L2I                                                       SYS / PHASE SHIFT
J L1C                                                       SYS / PHASE SHIFT
J L5Q -0.25000                                              SYS / PHASE SHIFT
 C1C    0.000 C1P    0.000 C2C    0.000 C2P    0.000        GLONASS COD/PHS/BIS
                                                            END OF HEADER
> 2022  3 11  7 25  7.4377552  3  1
geo                                                         MARKER NAME
> 2022  3 11  7 25  7.4377552  0 31
C01  40337386.892                          21.500          30.800  
C07  38184474.123                        -294.501          29.500  
C08  38943348.665                        1682.986          35.000  
C09  36308915.845                        -564.750          27.000  
C10  37751774.375                        -327.435          34.600  
C12  22900227.487                        2478.500          23.400  
C13  38898212.512                        1486.550          28.100  
C16  37618478.254                        -991.100          23.000  
C21  25365932.015                       -1728.500          22.300  
C24  25615707.999                        1911.167          28.600  
C26  22814821.712                        1265.473          26.400  
C35  22628385.879                       -1819.147          30.200  
E02                                                                  27185437.797                         533.150          20.700  
E03                                                                  25430406.280                         130.200          25.900    25428493.305                          97.350          23.400  
E05                                                                                                                                  24791459.814                       -1445.230          27.500  
E11                                                                  23221277.628                         381.500          22.800    23219359.556                         284.882          30.400  
E25                                                                  25634381.171                         160.924          33.400    25632479.288                         120.260          30.700  
E36                                                                  25089637.290                        2362.350          27.200  
G01  22192800.928                        -233.611          30.300    22190461.347                        -174.447          35.600  
G07  20585821.017                         434.393          34.900  
G14  22393493.091                          -8.900          23.200    22391125.630                          -3.800          23.600  
G17  20380584.299                         297.550          24.100  
G19  21764255.703                        2164.250          18.600  
G30  20954378.370                        1547.784          36.600    20952016.905                        1155.784          35.400  
J02  41065879.867                        1416.234          32.300    41063536.389                        1057.562          31.000  
J03  41908494.237                        -654.300          23.700    41906153.458                        -490.548          35.600  
R12  21996734.562                         458.218          33.600  
R13  22170505.662                        1625.481          30.400  
R22  22995178.054                       -3711.300          27.600  
R23  19435577.314                         152.950          26.300  
R24  20546263.102                        3297.100          24.300  
> 2022  3 11  7 25  8.4377552  0 29
C03  36921114.221                          38.250          25.600  
C07  38184518.784                        -290.600          29.200  
C08  38943023.982                        1685.665          34.700  
C09  36309012.070                        -557.400          26.000  
C10  37751835.224                        -324.760          34.500  
C12  22899737.917                        2483.050          24.600  
C13  38897931.898                        1488.350          27.600  
C16  37618653.324                        -991.050          22.900  
C24  25615341.344                        1913.794          28.900  
C26  22814576.473                        1267.970          25.900  
C35  22628733.330                       -1816.791          31.000  
E02                                                                  27185354.747                         535.200          21.700  
E03                                                                  25430381.689                         131.350          26.700  
E05                                                                                                                                  24791825.253                       -1443.559          26.500  
E11                                                                  23221220.360                         383.150          22.700    23219287.898                         286.570          31.200  
E25                                                                  25634349.985                         163.560          32.500    25632448.701                         122.112          30.800  
E36                                                                  25089181.897                        2363.750          25.900  
G01  22192857.281                        -231.643          28.900    22190506.008                        -172.968          34.800  
G07  20585730.771                         436.502          34.500  
G14  22393466.402                           2.000          21.900    22391127.121                          -3.100          22.200  
G17  20380512.041                         300.450          24.600  
G30  20954074.972                        1550.066          36.300    20951722.201                        1157.390          35.100  
J02  41065615.742                        1419.027          32.000    41063265.969                        1059.585          31.200  
J03  41908606.052                        -654.250          23.600    41906278.763                        -488.691          35.600  
R12  21996650.312                         460.834          34.600  
R13  22170198.967                        1628.347          30.500  
R22  22995890.352                       -3708.650          27.800  
R23  19435554.522                         152.850          26.000  
R24  20545646.721                        3294.600          25.100  
> 2022  3 11  7 25  9.4377552  0 30
C01  40337383.047                          30.150          31.300  
C06  37702346.745                        -967.550          19.500  
C07  38184583.899                        -289.950          28.000  
C08  38942701.765                        1687.248          34.800  
C09  36309122.754                        -557.400          27.500  
C10  37751894.644                        -323.044          34.600  
C12  22899262.207                        2479.700          23.300  
C13  38897637.862                        1489.550          28.500  
C16  37618846.751                        -986.150          22.500  
C21  25366575.122                       -1726.000          22.600  
C24  25616854.457                        1916.850          27.800  
C26  22814332.503                        1269.718          25.400  
C35  22629081.749                       -1815.643          29.500  
E03                                                                  25430353.569                         133.050          26.000  
E05                                                                                                                                  24792194.357                       -1442.386          27.100  
E11                                                                  23221128.684                         384.000          24.200    23219213.310                         287.490          30.600  
E25                                                                  25634315.869                         165.400          32.400    25632416.084                         123.632          30.800  
E36                                                                  25088729.271                        2364.450          25.500    25086823.790                        1767.100          23.800  
G01  22192903.509                        -230.470          29.700    22190549.539                        -172.247          35.000  
G07  20585642.992                         437.592          34.300  
G14  22393465.263                          -2.500          22.900    22391130.479                          -1.315          24.400  
G17  20380470.131                         297.100          24.500  
G30  20953780.036                        1551.362          36.200    20951426.666                        1158.428          35.000  
J02  41065341.192                        1420.560          30.500    41062995.916                        1060.844          30.900  
J03  41908751.512                        -651.100          24.700    41906402.338                        -487.353          35.300  
R12  21996550.841                         462.447          34.400  
R13  22169884.845                        1630.180          31.100  
R22  22996582.933                       -3705.600          28.700  
R23  19435525.202                         150.350          25.900  
R24  20545088.867                        3296.650          24.800  
> 2022  3 11  7 25 10.4377553  0 21
C24  25614635.280                        1918.221          27.900  
C26  22814119.237                        1272.087          23.300  
E03                                                                  25430354.955                         135.050          26.400  
E05                                                                                                                                  24792592.968                       -1440.701          26.400  
E11                                                                                                                                  23219171.525                         289.025          30.200  
E25                                                                  25634313.957                         168.038          32.200    25632415.671                         125.361          29.700  
E36                                                                  25088305.550                        2366.550          25.500    25086406.965                        1768.100          24.600  
G01  22192962.155                        -228.537          29.300    22190623.174                        -170.758          34.500  
G07  20585590.715                         439.657          33.000  
G13  23903524.557                        2601.500          18.000  
G14  22393519.412                          -1.200          23.600    22391158.846                           0.750          23.800  
G17  20380424.749                         300.400          24.100  
G19  21763091.848                        2162.950          18.900  
G30  20953511.609                        1553.481          35.400    20951161.236                        1160.076          34.300  
J02  41065096.448                        1423.331          30.300    41062754.769                        1062.818          29.500  
J03  41908870.715                        -651.250          22.700    41906556.318                        -485.504          34.300  
R12  21996489.570                         464.947          34.800  
R13  22169625.111                        1632.814          30.200  
R22  22997302.921                       -3704.600          27.300  
R23  19435520.892                         154.000          25.700  
R24  20544463.687                        3303.900          25.300  
> 2022  3 11  7 25 11.4377553  0 31
C07  38184726.620                        -284.900          25.200  
C08  38942076.417                        1692.824          33.200  
C09  36309372.200                        -550.900          26.100  
C10  37752050.855                        -317.320          33.300  
C12  22898345.161                        2488.300          23.300  
C13  38897100.354                        1496.974          29.800  
C16  37619258.685                        -978.950          25.300  
C24  25616147.866                        1921.950          28.700  
C26  22813872.940                        1275.183          24.100  
C35  22629803.669                       -1810.400          25.500  
E02                                                                  27185064.327                         541.300          20.500  
E03                                                                  25430326.607                         138.700          24.700    25428423.225                         103.400          22.900  
E05                                                                                                                                  24792957.049                       -1438.277          25.700  
E11                                                                                                                                  23219095.510                         291.008          30.100  
E25                                                                  25634289.806                         171.334          32.300    25632381.927                         127.938          30.000  
E36                                                                  25087866.487                        2370.000          26.400  
G01  22193017.449                        -226.119          30.500    22190666.177                        -168.769          34.500  
G07  20585497.013                         442.286          31.700  
G09  23021111.672                       -3146.800          15.900  
G14                                                                  22391158.679                           3.000          23.700  
G17  20380385.908                         301.150          23.500  
G19  21762673.470                        2172.700          24.700  
G30  20953214.347                        1556.347          35.200    20950865.174                        1162.203          34.700  
J02  41064839.059                        1423.700          26.000    41062484.489                        1065.174          30.700  
J03                                                                  41906679.665                        -483.107          35.400  
R02  22039083.616                       -2714.000          11.800  
R12  21996415.654                         467.956          32.300  
R13  22169311.061                        1635.800          28.600  
R22  22997987.181                       -3703.250          26.000  
R23  19435486.249                         153.950          25.100  
R24  20543846.847                        3303.800          27.700  
> 2022  3 11  7 25 12.4377553  0 33
C07  38184776.340                        -285.000          29.100  
C08  38941751.697                        1691.685          33.700  
C09  36309475.584                        -553.550          27.600  
C10  37752109.569                        -318.353          35.000  
C12  22897871.444                        2488.450          25.000  
C13  38896802.315                        1493.950          24.700  
C14  25873773.570                        -354.450          15.700  
C16  37619428.023                        -981.000          23.100  
C21  25367622.871                       -1723.500          21.600  
C24  25615782.374                        1920.643          29.400  
C26  22815509.762                        1274.026          36.600  
C35  22630152.582                       -1810.850          27.700  
E02                                                                  27184949.162                         543.150          22.900  
E03                                                                  25430296.883                         136.300          24.400    25428397.997                         101.800          23.000  
E05                                                                                                                                  24793322.451                       -1439.337          26.500  
E11                                                                  23220923.000                         389.100          23.700    23219021.417                         289.705          30.800  
E25                                                                  25634255.585                         170.323          33.600    25632350.404                         127.207          30.800  
E36                                                                  25087403.863                        2368.950          26.000  
G01  22193059.376                        -227.982          31.600    22190709.602                        -170.171          35.200  
G07  20585428.615                         440.467          34.100  
G09  23021732.497                       -3142.250          22.400  
G13  23902531.133                        2616.150          19.700  
G14  22393494.617                           0.850          22.100    22391156.536                           2.314          25.000  
G17  20380329.502                         303.700          25.900  
G19  21762275.001                        2168.950          22.000  
G30  20952919.307                        1554.681          36.100    20950568.934                        1161.047          34.500  
J02  41064551.813                        1425.278          32.500    41062212.533                        1064.206          31.700  
J03  41909146.612                        -646.950          24.800    41906802.535                        -483.917          35.400  
R12  21996326.871                         466.598          35.100  
R13  22168998.632                        1635.103          31.200  
R22  22998654.174                       -3704.100          27.700  
R23  19435462.520                         155.950          24.700  
R24  20543216.338                        3301.500          24.300  
> 2022  3 11  7 25 13.4377553  0 28
C07  38184830.145                        -289.204          29.900  
C08  38941429.562                        1687.724          33.300  
C09  36309586.649                        -558.750          27.300  
C10  37752170.869                        -322.200          35.000  
C12  22897401.511                        2479.350          24.400  
C13  38896517.354                        1491.500          24.900  
C16  37619647.912                        -993.150          23.400  
C24  25613528.076                        1917.229          29.200  
C26  22815265.573                        1270.118          36.000  
C35  22630493.288                       -1815.700          28.300  
E02                                                                  27184856.968                         538.950          22.100  
E03                                                                  25430280.536                         132.700          25.300    25428371.457                          98.600          24.100  
E05                                                                  24795627.697                       -1932.750          21.500    24793694.635                       -1442.367          26.900  
E11                                                                  23220864.083                         384.750          22.600    23218948.409                         286.737          31.400  
E25                                                                  25634221.251                         166.624          33.400    25632316.669                         124.335          30.900  
E36                                                                  25086959.712                        2365.100          27.400  
G01  22193098.490                        -232.603          31.200    22190753.514                        -173.535          35.700  
G07  20585345.714                         436.194          33.400  
G14  22393484.866                          -0.250          23.400    22391154.879                          -0.491          23.900  
G17  20380229.813                         301.450          25.000  
G30  20952627.451                        1550.468          35.600    20950274.080                        1157.935          35.200  
J02  41064285.439                        1421.227          32.100    41061942.861                        1061.527          31.900  
J03  41909261.874                        -650.300          28.200    41906926.491                        -486.823          35.500  
R12  21996244.869                         462.564          36.200  
R13  22168707.975                        1631.235          31.100  
R22  22999392.105                       -3708.700          26.500  
R23  19435432.982                         149.400          24.600  
R24  20542631.585                        3300.350          26.000  
> 2022  3 11  7 25 14.4377553  0 29
C07  38184894.654                        -294.244          29.700  
C08  38941102.242                        1682.560          32.500  
C09  36309685.634                        -564.000          27.100  
C10  37752230.581                        -327.351          34.800  
C13  38896227.808                        1482.500          24.000  
C16  37619822.445                        -994.350          24.700  
C24  25613160.884                        1911.669          29.400  
C26  22813142.197                        1264.679          25.500  
C35  22630845.898                       -1821.050          28.100  
E02                                                                  27184760.488                         532.900          23.600  
E03                                                                  25430254.807                         126.450          25.200    25428348.127                          94.750          23.600  
E05                                                                  24795989.600                       -1938.250          21.600    24794061.335                       -1446.609          26.600  
E11                                                                  23220797.882                         379.400          20.900    23218877.112                         282.223          31.100  
E25                                                                  25634195.222                         161.371          33.600    25632286.743                         120.551          30.600  
E36                                                                  25086505.280                        2359.700          25.600    25084603.996                        1761.700          23.500  
G01  22193138.716                        -238.330          30.000    22190798.836                        -177.963          35.500  
G07  20585269.321                         430.472          33.500  
G13  23901572.892                        2600.950          20.000  
G14  22393495.712                          -7.900          21.500    22391158.530                          -4.100          23.000  
G17  20380194.491                         289.850          24.300  
G19  21761433.679                        2159.200          22.200  
G30  20952334.907                        1544.909          35.900    20949979.737                        1153.703          35.300  
J02  41064005.487                        1416.211          30.900    41061672.802                        1057.549          31.700  
J03  41909388.440                        -658.300          27.300    41907051.558                        -490.955          35.100  
R12  21996163.379                         457.112          36.500  
R13  22168395.046                        1625.963          30.800  
R22  23000033.115                       -3715.850          26.600  
R23  19435381.472                         143.300          25.300  
R24  20541992.181                        3290.400          25.900  
> 2022  3 11  7 30  3.4377559  0 21
C07  38200846.451                        -267.870          31.600  
C08  38848075.583                        1683.300          24.900  
C09  36342766.373                        -613.000          19.400  
C10  37770051.883                        -302.139          30.200  
C13  38813786.821                        1497.446          30.400  
C26  22745548.731                        1250.827          33.500  
C35  22735765.603                       -1944.100          28.000  
E03                                                                                                                                  25424917.442                           8.108          24.400  
E11                                                                  23203781.203                         251.300          23.900    23201865.529                         186.550          23.300  
E25                                                                  25624591.811                         199.150          29.100  
E36                                                                                                                                  24956578.666                        1723.450          24.100  
G01  22211382.426                        -412.334          34.200    22209038.949                        -308.194          31.600  
G07  20565921.155                         285.750          24.600  
G13  23762121.872                        2480.850          24.100  
G14  22393798.042                           7.050          26.400  
G30                                                                  20868197.694                        1075.824          31.700  
J02  40986105.456                        1430.396          33.000    40983754.483                        1067.665          24.900  
J03  41945908.998                        -657.439          33.000  
R12  21972533.578                         427.416          30.400  
R13  22079533.104                        1672.500          26.000  
R22  23204735.142                       -3827.450          25.500  
> 2022  3 11  7 30  4.4377559  0 24
C01  40336731.771                          42.250          31.100  
C07  38200900.576                        -256.273          33.700  
C10  37770106.309                        -290.382          31.700  
C12  22762372.347                        2371.900          18.300  
C13  38813504.279                        1508.882          31.700  
C24  25507796.129                        1963.500          19.700  
C26  22743426.962                        1262.479          24.300  
C35  22736133.611                       -1933.043          30.000  
E03                                                                                                                                  25424911.309                          17.357          26.100  
E11                                                                  23203733.399                         264.000          24.700    23201818.624                         197.050          22.500  
E25                                                                  25624551.201                         212.812          31.200  
E36                                                                                                                                  24956135.136                        1732.751          25.900  
G01  22211456.038                        -401.542          35.700    22209115.858                        -299.577          33.300  
G07  20565836.177                         292.850          25.400  
G13  23761612.987                        2493.700          23.800  
G14  22393791.010                          20.600          28.200  
G30  20870282.613                        1451.050          22.400    20867922.347                        1084.449          33.300  
J02  40985829.510                        1441.804          33.500    40983479.437                        1077.190          25.600  
J03  41946029.377                        -645.723          34.500    41943679.904                        -482.720          25.000  
R03  22421625.840                        -740.750          20.900  
R12  21972452.197                         439.007          30.600  
R13  22079254.159                        1682.000          26.700  
R22  23205427.826                       -3820.300          28.700  
R24  20368133.843                        3131.550          19.600  
> 2022  3 11  7 30  5.4377559  0 22
C01  40336732.804                          -0.050          33.400  
C07  38200954.073                        -269.819          34.100  
C08  38847453.810                        1680.950          25.300  
C10  37770172.696                        -303.880          32.600  
C13  38813210.017                        1495.433          32.600  
C16  37676727.987                       -1027.800          18.800  
C26  22743184.864                        1248.931          23.200  
C35  22736503.689                       -1947.128          30.500  
E03                                                                                                                                  25424912.942                           5.855          26.000  
E11                                                                  23203684.067                         249.300          23.400    23201768.992                         186.550          24.100  
E25                                                                  25624509.664                         198.946          30.700  
E36                                                                                                                                  24955694.875                        1721.600          26.900  
G01  22211544.311                        -415.727          35.400    22209194.537                        -310.527          33.700  
G07  20565794.340                         281.350          26.200  
G13  23761182.918                        2475.650          25.000  
G14  22393814.228                           6.873          30.700  
G30  20869990.149                        1435.000          25.100    20867646.971                        1073.933          33.600  
J02  40985563.727                        1428.017          35.000    40983207.359                        1066.010          25.500  
J03  41946144.331                        -659.231          33.500    41943810.447                        -494.500          25.100  
R12  21972396.869                         425.559          30.100  
R13  22078953.302                        1665.400          26.900  
R22  23206148.960                       -3833.600          28.700  
> 2022  3 11  7 30  6.4377559  0 25
C01  40336725.148                          22.100          32.300  
C07  38201006.675                        -274.906          33.100  
C08  38847116.983                        1671.800          27.500  
C09  36343111.270                        -617.450          21.300  
C10  37770224.999                        -308.952          32.800  
C12  22761467.246                        2362.100          22.100  
C13  38812927.152                        1490.276          33.500  
C16  37676919.094                       -1037.200          26.600  
C24  25507021.139                        1946.800          24.200  
C26  22744831.163                        1243.233          33.700  
C35  22736890.260                       -1953.600          28.800  
E03                                                                  25426818.862                           2.900          25.700  
E11                                                                  23203627.545                         244.350          23.700    23201724.163                         182.191          32.500  
E25                                                                  25624473.228                         193.785          34.500    25622568.647                         144.700          24.800  
E36                                                                                                                                  24955255.518                        1717.884          27.600  
G01  22211621.197                        -421.527          36.900    22209273.522                        -314.725          34.400  
G07  20565690.451                         275.650          21.800  
G14  22393783.788                           1.774          29.900  
G30  20869726.771                        1433.398          31.200    20867374.000                        1069.637          33.600  
J02  40985276.665                        1423.081          32.400    40982935.286                        1062.691          31.000  
J03  41946276.679                        -664.559          31.400    41943934.101                        -493.019          33.100  
R12  21972320.261                         419.500          31.000  
R13  22078616.174                        1662.257          30.200  
R22  23206856.909                       -3837.900          26.700  
R24  20366985.012                        3124.200          23.600  
> 2022  3 11  7 30  7.4377559  0 25
C01  40336730.627                         -13.000          31.600  
C07  38201057.123                        -280.496          32.200  
C08  38846789.092                        1669.650          28.100  
C09  36343239.363                        -626.800          23.400  
C10  37770287.738                        -314.583          33.400  
C12  22761019.439                        2353.600          22.900  
C13  38812636.136                        1484.567          33.900  
C16  37677119.138                       -1042.750          27.600  
C24  25506634.789                        1938.250          25.000  
C26  22744594.110                        1237.331          33.900  
C35  22737267.782                       -1958.250          28.800  
E03                                                                  25426821.043                          -3.000          27.200  
E05                                                                  24905836.613                       -2002.750          20.200    24903929.633                       -1495.600          24.700  
E11                                                                  23203595.550                         238.500          25.900    23201677.178                         177.696          32.000  
E25                                                                  25624439.734                         188.350          34.700    25622533.654                         140.444          25.200  
E36                                                                                                                                  24954818.503                        1713.260          29.000  
G01  22211700.724                        -427.938          36.800    22209353.349                        -319.526          34.800  
G14  22393797.061                          -4.014          29.900  
G30  20869440.552                        1426.421          32.600    20867102.470                        1065.208          33.400  
J02  40984993.444                        1417.431          30.600    40982662.558                        1058.427          31.500  
J03  41946400.876                        -670.337          29.700    41944060.995                        -500.602          32.700  
R12  21972226.209                         413.710          29.900  
R13  22078345.244                        1656.479          30.100  
R22  23207607.672                       -3845.900          26.200  
R24  20366387.908                        3115.950          28.500  
