     3.03           OBSERVATION DATA    M: Mixed            RINEX VERSION / TYPE
Geo++ RINEX Logger  Geo++               20220311 073008 UTC PGM / RUN BY / DATE
************************************************************COMMENT
This file was generated by the Geo++ RINEX Logger App       COMMENT
for Android devices (Version 2.1.6). If you encounter       COMMENT
any issues, please send an email to android@geopp.de        COMMENT
Filtering Mode: BEST                                        COMMENT
************************************************************COMMENT
geo                                                         MARKER NAME
GEODETIC                                                    MARKER TYPE
Geo++               Geo++                                   OBSERVER / AGENCY
unknown             OnePlus             IN2011              REC # / TYPE / VERS
unknown             IN2011                                  ANT # / TYPE
  1501541.3107  6066635.6118  1272399.0883                  APPROX POSITION XYZ
        0.0000        0.0000        0.0000                  ANTENNA: DELTA H/E/N
G    8 C1C L1C D1C S1C C5Q L5Q D5Q S5Q                      SYS / # / OBS TYPES
R    4 C1C L1C D1C S1C                                      SYS / # / OBS TYPES
E   12 C1B L1B D1B S1B C1C L1C D1C S1C C5Q L5Q D5Q S5Q      SYS / # / OBS TYPES
C    4 C2I L2I D2I S2I                                      SYS / # / OBS TYPES
J    8 C1C L1C D1C S1C C5Q L5Q D5Q S5Q                      SYS / # / OBS TYPES
  2022     3    11     7    30   26.4377558     GPS         TIME OF FIRST OBS
 24 R01  1 R02 -4 R03  5 R04  6 R05  1 R06 -4 R07  5 R08  6 GLONASS SLOT / FRQ #
    R09 -2 R10 -5 R11  0 R12 -1 R13 -2 R14 -7 R15  0 R16 -1 GLONASS SLOT / FRQ #
    R17  4 R18 -3 R19  3 R20  2 R21  4 R22 -3 R23  3 R24  2 GLONASS SLOT / FRQ #
G L1C                                                       SYS / PHASE SHIFT
G L5Q -0.25000                                              SYS / PHASE SHIFT
R L1C                                                       SYS / PHASE SHIFT
E L1B                                                       SYS / PHASE SHIFT
E L1C +0.50000                                              SYS / PHASE SHIFT
E L5Q -0.25000                                              SYS / PHASE SHIFT
C L2I                                                       SYS / PHASE SHIFT
J L1C                                                       SYS / PHASE SHIFT
J L5Q -0.25000                                              SYS / PHASE SHIFT
 C1C    0.000 C1P    0.000 C2C    0.000 C2P    0.000        GLONASS COD/PHS/BIS
                                                            END OF HEADER
> 2022  3 11  7 30 26.4377558  3  1
geo                                                         MARKER NAME
> 2022  3 11  7 30 26.4377558  0 29
C01  40336670.856                          29.000          31.300  
C07  38202038.232                        -273.315          32.700  
C08  38840644.434                        1674.200          26.800  
C09  36345488.894                        -627.650          24.200  
C10  37771391.762                        -307.612          33.200  
C12  22752383.805                        2346.650          22.600  
C13  38807178.302                        1490.701          34.100  
C16  37680892.813                       -1042.200          27.500  
C24  25499506.511                        1944.550          19.800  
C26  22740026.360                        1241.827          32.800  
C35  22744364.357                       -1962.400          24.300  
E02                                                                                                                                  27150683.925                         414.050          23.500  
E03                                                                  25426788.553                          -5.450          24.400  
E05                                                                                                                                  24911136.531                       -1494.309          24.700  
E11                                                                  23202704.754                         235.850          21.000    23200790.280                         175.617          32.600  
E25                                                                  25623714.124                         196.169          36.000    25621806.845                         146.433          27.800  
E36                                                                                                                                  24946485.660                        1714.741          26.900  
G01  22213237.048                        -434.016          36.900    22210877.982                        -324.136          35.000  
G07  20564658.236                         263.950          24.100  
G14  22393772.366                           2.200          28.400    22391411.501                           1.714          24.800  
G19  21637991.982                        2002.400          25.100  
G30  20864271.418                        1424.715          34.900    20861915.049                        1063.904          34.200  
J02  40979829.707                        1423.640          29.200    40977496.122                        1063.174          31.300  
J03  41948775.420                        -664.821          30.400    41946442.734                        -496.465          33.900  
R02  22200561.224                       -2751.350          20.100  
R12  21970705.549                         416.953          30.600  
R13  22072379.562                        1664.691          29.400  
R22  23221218.437                       -3846.600          25.100  
R24  20355337.146                        3113.250          23.100  
> 2022  3 11  7 30 27.4377558  0 28
C07  38202087.423                        -269.274          32.200  
C08  38840343.167                        1677.750          26.200  
C09  36345603.739                        -627.550          23.400  
C10  37771448.448                        -303.501          33.100  
C12  22751939.537                        2353.050          22.900  
C13  38806890.826                        1494.607          34.100  
C16  37681093.699                       -1035.950          27.000  
C24  25497270.384                        1952.014          27.000  
C26  22739787.750                        1245.756          32.400  
C35  22744739.422                       -1960.400          23.500  
E02                                                                                                                                  27150580.821                         416.650          22.700  
E03                                                                  25426785.880                          -1.500          23.100  
E05                                                                  24913436.564                       -1996.400          23.100    24911514.295                       -1492.200          22.900  
E11                                                                  23202668.804                         239.850          22.000    23200745.036                         178.207          31.100  
E25                                                                  25623675.476                         200.156          35.600    25621770.295                         149.516          27.300  
E36                                                                                                                                  24946049.487                        1717.561          26.600  
G01  22213316.818                        -430.613          36.600    22210960.449                        -321.709          34.700  
G07  20564643.871                         268.650          24.400  
G14  22393767.894                           5.955          29.100    22391410.326                           4.946          25.000  
G19  21637613.969                        2006.000          23.700  
G30  20863997.432                        1428.359          34.400    20861644.661                        1066.445          33.900  
J02  40979579.405                        1427.815          30.200    40977223.336                        1066.035          30.600  
J03  41948910.351                        -661.001          30.000    41946568.072                        -493.701          33.200  
R03  22424970.293                        -760.750          20.300  
R12  21970653.710                         420.834          31.100  
R13  22072038.723                        1669.099          30.200  
R22  23221948.757                       -3843.550          25.400  
R24  20354703.709                        3120.350          23.700  
> 2022  3 11  7 30 28.4377558  0 30
C01  40336667.480                          19.000          31.400  
C07  38202143.081                        -264.712          31.100  
C08  38840009.695                        1683.800          28.100  
C09  36345734.346                        -619.150          23.200  
C10  37771503.506                        -298.837          32.000  
C13  38806607.119                        1499.123          34.200  
C16  37681289.960                       -1030.100          27.000  
C24  25496894.042                        1956.794          27.500  
C26  22739555.907                        1250.228          32.300  
C34  25398595.692                        3063.700          21.200  
E03                                                                  25426784.877                           2.450          22.800  
E05                                                                  24913799.210                       -1992.450          23.500    24911894.328                       -1486.750          23.000  
E11                                                                  23202616.537                         243.550          22.500    23200699.664                         181.393          32.000  
E25                                                                  25623636.699                         204.842          35.200    25621731.518                         152.870          26.300  
E36                                                                  24947529.459                        2305.100          22.700    24945612.286                        1720.950          26.100  
G01  22213395.860                        -426.628          36.300    22211042.189                        -318.575          34.100  
G07  20564582.310                         275.450          23.000  
G14  22393763.594                          10.500          27.500    22391409.923                           8.399          25.600  
G17  20368610.079                         102.500          16.900  
G19  21637212.444                        2008.600          22.100  
G30  20863730.514                        1432.556          34.400    20861372.346                        1069.733          33.500  
J02  40979293.000                        1432.412          30.100    40976952.220                        1069.657          30.700  
J03  41949039.458                        -656.323          28.900    41946693.582                        -490.163          33.300  
R02  22201561.253                       -2738.800          20.500  
R03  22425045.438                        -754.800          23.400  
R12  21970560.372                         425.381          30.700  
R13  22071740.626                        1674.427          29.000  
R22  23222696.336                       -3840.050          25.200  
R23  19435869.701                        -153.250          17.100  
R24  20354169.676                        3118.250          24.400  
> 2022  3 11  7 30 29.4377558  0 30
C01  40336665.128                          22.450          32.900  
C07  38202187.796                        -260.961          32.200  
C08  38839691.062                        1687.000          29.200  
C09  36345841.118                        -621.150          24.100  
C10  37771561.113                        -295.213          34.400  
C12  22751020.017                        2360.350          22.400  
C13  38806314.268                        1502.917          36.700  
C16  37681495.664                       -1029.150          28.700  
C24  25498389.753                        1961.800          20.700  
C26  22739311.323                        1253.627          34.600  
C34  25398024.034                        3068.400          22.400  
C35  22745503.836                       -1948.600          23.100  
E02                                                                                                                                  27150362.216                         422.800          22.400  
E03                                                                  25426787.022                           5.550          25.000  
E05                                                                  24914180.592                       -1989.250          25.000    24912272.413                       -1485.300          26.000  
E11                                                                  23202567.717                         244.950          23.500    23200653.542                         183.902          32.400  
E25                                                                  25623597.773                         208.936          36.600    25621691.393                         156.285          28.400  
E36                                                                  24947084.314                        2306.950          21.800    24945170.439                        1723.350          27.500  
G01  22213469.656                        -423.641          37.600    22211122.281                        -316.274          34.500  
G07  20564507.708                         275.700          25.600  
G14  22393756.745                          12.750          28.000    22391405.473                          11.580          25.400  
G19  21636815.265                        2013.550          25.800  
G30  20863452.353                        1435.829          35.100    20861098.083                        1072.365          33.500  
J02  40979019.036                        1436.695          31.800    40976680.055                        1072.546          32.000  
J03  41949161.820                        -652.550          31.900    41946818.343                        -487.181          34.500  
R03  22425204.375                        -756.150          25.400  
R12  21970487.868                         429.026          31.600  
R13  22071419.895                        1677.705          30.900  
R22  23223387.104                       -3837.850          25.600  
R24  20353537.160                        3124.500          28.200  
> 2022  3 11  7 30 30.4377559  0 31
C01  40336692.205                          11.550          31.700  
C07  38202273.632                        -267.683          32.600  
C08  38839389.866                        1679.050          26.400  
C09  36345983.315                        -616.900          23.600  
C10  37771649.047                        -301.818          34.300  
C12  22750593.807                        2357.600          22.000  
C13  38806058.940                        1496.177          35.400  
C16  37681718.805                       -1034.500          26.700  
C21  25472154.710                       -1675.500          18.900  
C24  25498058.877                        1948.300          23.400  
C26  22739102.163                        1246.876          34.400  
C35  22745901.756                       -1960.150          23.600  
E02                                                                                                                                  27150290.661                         419.050          24.100  
E03                                                                  25426816.797                          -2.450          24.100  
E05                                                                  24914595.300                       -1996.950          21.500    24912682.625                       -1490.699          25.400  
E11                                                                  23202564.215                         238.700          20.500    23200637.449                         178.346          32.000  
E25                                                                  25623590.673                         202.188          36.900    25621681.595                         150.910          28.800  
E36                                                                                                                                  24944764.315                        1718.249          27.200  
G01  22213581.273                        -431.016          37.900    22211234.498                        -321.773          34.300  
G07  20564505.405                         272.050          23.800  
G14  22393774.229                           8.200          26.600    22391434.049                           6.083          24.100  
G17  20368667.181                         106.100          22.800  
G19  21636491.884                        2007.550          27.300  
G30  20863209.616                        1428.725          34.800    20860855.946                        1066.962          33.300  
J02  40978779.897                        1429.344          32.400    40976437.618                        1067.362          31.500  
J03  41949321.105                        -659.360          32.600    41946972.531                        -492.367          34.400  
R03  22425417.322                        -763.250          25.300  
R12  21970434.001                         421.871          30.000  
R13  22071131.290                        1670.835          30.100  
R22  23224155.567                       -3843.400          27.100  
R24  20352973.046                        3115.250          25.300  
> 2022  3 11  7 30 31.4377559  0 32
C01  40336689.567                          -1.600          32.300  
C07  38202329.154                        -273.383          31.900  
C08  38839071.547                        1675.098          29.400  
C09  36346109.888                        -628.550          24.900  
C10  37771710.565                        -307.622          34.200  
C12  22750148.077                        2346.650          24.100  
C13  38805770.301                        1490.368          35.100  
C14  25899014.562                        -451.350          17.700  
C16  37681919.426                       -1043.650          27.400  
C24  25495798.502                        1948.438          30.000  
C26  22736988.387                        1240.771          23.000  
C34  25396857.998                        3058.050          21.400  
C35  22746269.062                       -1966.900          24.500  
E02                                                                                                                                  27150181.297                         414.600          23.300  
E03                                                                  25426811.461                          -8.000          25.900  
E05                                                                  24914982.993                       -2003.550          24.300    24913063.122                       -1495.261          26.400  
E11                                                                  23202514.510                         232.800          23.100    23200592.840                         173.517          32.800  
E25                                                                  25623550.861                         196.340          37.100    25621644.181                         146.513          26.900  
E36                                                                  24946240.553                        2294.500          21.900    24944325.479                        1713.755          28.200  
G01  22213667.674                        -437.527          37.600    22211317.601                        -326.842          35.200  
G07  20564441.910                         260.400          25.600  
G14  22393764.996                           2.320          29.100    22391432.310                           1.814          27.800  
G17  20368603.686                          94.350          23.800  
G19  21636114.506                        1999.600          26.000  
G30  20862932.369                        1422.396          35.400    20860585.594                        1062.031          33.500  
J02  40978510.144                        1423.465          31.000    40976165.767                        1062.844          32.200  
J03  41949454.274                        -665.356          32.100    41947099.104                        -496.776          34.400  
R03  22425543.296                        -771.100          22.800  
R12  21970357.614                         415.787          30.800  
R13  22070809.373                        1665.001          31.100  
R22  23224885.023                       -3850.800          26.300  
R24  20352398.704                        3105.550          26.000  
> 2022  3 11  7 30 32.4377559  0 32
C01  40336689.902                          18.750          31.800  
C07  38202375.357                        -275.675          31.700  
C08  38838753.502                        1673.050          28.800  
C09  36346226.542                        -629.750          25.100  
C10  37771766.661                        -309.956          33.300  
C12  22749699.022                        2341.050          22.100  
C13  38805486.132                        1487.901          33.500  
C16  37682115.825                       -1042.900          26.600  
C21  25472812.550                       -1685.800          21.100  
C24  25497286.107                        1947.500          24.400  
C26  22736751.286                        1238.050          22.200  
C35  22746646.835                       -1968.050          24.500  
E02                                                                                                                                  27150072.207                         414.000          22.700  
E03                                                                  25426824.387                         -10.300          25.900  
E05                                                                  24915348.774                       -2004.700          24.600    24913442.094                       -1497.029          25.900  
E11                                                                  23202474.073                         230.150          22.900    23200548.506                         171.287          32.300  
E25                                                                  25623514.621                         194.160          36.500    25621607.941                         145.006          28.100  
E36                                                                  24945798.694                        2292.800          21.500    24943891.115                        1711.827          27.800  
G01  22213746.255                        -440.618          37.100    22211400.679                        -329.003          34.700  
G07  20564412.565                         261.750          26.400  
G13  23748523.550                        2467.900          19.000  
G14  22393779.720                          -0.256          29.500    22391434.444                           0.058          26.300  
G17  20368565.047                          95.100          21.100  
G19  21635711.320                        1998.650          27.800  
G30  20862662.890                        1419.492          34.900    20860314.916                        1060.130          34.200  
J02  40978254.156                        1420.988          30.900    40975895.689                        1061.154          32.100  
J03  41949581.121                        -667.714          31.600    41947225.951                        -498.537          34.000  
R03  22425611.084                        -773.250          24.100  
R12  21970274.906                         413.239          30.400  
R13  22070512.014                        1662.597          30.900  
R22  23225607.258                       -3854.500          25.700  
R24  20351794.357                        3108.800          24.100  
> 2022  3 11  7 35 20.4377560  0 35
C01  40336025.669                          26.200          36.200  
C02  35927852.184                          -9.000          33.500  
C06  37820658.121                       -1036.277          32.100  
C07  38216450.120                        -233.208          38.000  
C08  38745948.057                        1684.157          33.600  
C09  36382097.116                        -668.900          25.900  
C10  37787755.300                        -268.266          38.500  
C12  22622547.854                        2250.064          30.800  
C13  38722496.792                        1512.433          37.000  
C14  25925796.063                        -509.500          24.800  
C16  37740457.343                       -1064.474          30.900  
C24  25386273.367                        2000.250          31.300  
C26  22668333.358                        1234.069          23.300  
C34  25228371.480                        3011.100          23.800  
C35  22856297.233                       -2065.541          30.300  
E02                                                                  27120462.113                         598.350          27.900    27118531.749                         446.880          26.500  
E03                                                                  25430082.938                        -107.398          32.700    25428163.967                         -80.140          28.200  
E05                                                                  25026091.915                       -2035.550          20.800    25024156.155                       -1519.314          24.900  
E11                                                                  23192921.593                         118.600          27.200    23191008.017                          88.155          31.000  
E25                                                                  25611367.138                         248.941          39.900    25609456.860                         186.024          31.600  
E36                                                                  24821282.402                        2250.350          27.600    24819370.925                        1681.050          23.100  
G01  22242265.618                        -600.670          40.600    22239924.239                        -448.567          35.600  
G07  20553839.591                         124.966          33.800  
G13  23616757.677                        2347.450          27.800  
G14  22392881.349                          33.111          40.000    22390534.274                          24.647          32.500  
G17  20367592.927                         -57.222          32.300  
G19  21529670.937                        1868.800          23.400  
G30  20787460.958                        1323.562          36.700    20785105.489                         988.332          33.800  
J02  40899562.640                        1449.754          40.500    40897218.263                        1082.642          33.800  
J03  41985704.420                        -650.942          41.000    41983358.244                        -486.169          35.100  
R03  22470811.499                        -906.000          28.400  
R12  21948558.647                         390.847          43.300  
R13  21979373.115                        1716.226          32.300  
R23  19451542.895                        -412.744          34.200  
R24  20188820.688                        2947.234          36.100  
> 2022  3 11  7 35 21.4377560  0 35
C01  40336025.941                          27.330          38.900  
C03  36918689.613                          42.850          30.900  
C05  36239648.304                          56.500          27.000  
C06  37820856.256                       -1027.150          28.900  
C07  38216495.661                        -223.752          36.100  
C08  38745618.257                        1693.553          35.400  
C09  36382220.303                        -653.500          28.000  
C10  37787808.635                        -258.877          39.700  
C12  22622109.830                        2259.479          31.100  
C13  38722206.864                        1521.842          38.300  
C16  37740663.273                       -1055.426          30.100  
C24  25385888.705                        2009.269          29.400  
C26  22669979.190                        1244.153          41.000  
C35  22856692.931                       -2056.452          29.400  
E02                                                                  27120322.981                         603.950          21.700    27118418.400                         454.173          24.400  
E03                                                                  25430101.797                         -98.409          31.900    25428183.125                         -73.128          25.800  
E05                                                                  25026453.437                       -2021.550          23.000    25024544.359                       -1512.260          27.500  
E11                                                                  23192900.579                         126.798          30.300    23190985.505                          94.950          31.500  
E25                                                                  25611313.747                         258.414          37.000    25609409.165                         193.140          30.800  
E36                                                                  24820854.870                        2262.000          29.200    24818946.991                        1687.173          28.600  
G01  22242385.507                        -591.701          40.700    22240037.833                        -441.879          34.500  
G07  20553812.282                         133.986          36.800  
G09  23389895.702                       -3179.850          20.600  
G13  23616292.971                        2360.500          28.400  
G14  22392873.826                          42.899          39.000    22390526.451                          31.904          27.900  
G17  20367586.903                         -48.424          31.300  
G30  20787201.610                        1332.559          35.800    20784853.935                         995.175          33.800  
J02  40899283.506                        1459.633          40.400    40896943.026                        1089.858          34.200  
J03  41985835.701                        -641.516          41.700    41983483.529                        -479.079          34.200  
R02  22352671.658                       -2747.100          19.100  
R03  22470998.542                        -900.950          24.000  
R12  21948488.168                         400.270          41.000  
R13  21979047.512                        1725.953          32.100  
R23  19451639.101                        -403.989          34.200  
R24  20188278.336                        2956.159          34.000  
> 2022  3 11  7 35 22.4377560  0 34
C01  40336021.216                          27.946          39.900  
C02  35927851.029                          24.500          32.000  
C03  36918677.994                          18.300          33.100  
C06  37821047.896                       -1025.050          25.600  
C07  38216536.805                        -222.873          33.800  
C08  38745294.254                        1694.008          32.600  
C09  36382344.789                        -656.355          31.400  
C10  37787856.374                        -258.090          39.900  
C12  22621682.698                        2259.128          30.000  
C13  38721915.538                        1522.204          38.500  
C16  37740858.210                       -1055.550          28.900  
C24  25385502.945                        2010.493          31.000  
C26  22669736.431                        1244.234          41.500  
C35  22857086.931                       -2056.702          27.300  
E02                                                                  27120188.747                         609.350          22.500    27118300.654                         454.000          24.000  
E03                                                                  25430112.362                         -98.178          33.900    25428198.787                         -73.650          23.600  
E05                                                                  25026852.233                       -2024.550          25.900    25024930.864                       -1512.035          26.200  
E11                                                                  23192870.972                         127.132          30.300    23190961.594                          94.980          31.600  
E25                                                                  25611258.957                         259.466          36.000    25609359.472                         193.682          32.300  
E36                                                                  24820426.239                        2260.400          28.400    24818515.362                        1687.351          26.600  
G01  22242490.807                        -591.896          39.800    22240150.627                        -442.001          34.300  
G07  20553790.170                         133.939          39.400  
G13  23615833.461                        2357.767          29.600  
G14  22392860.408                          43.124          36.600  
G17  20367593.271                         -48.015          30.100  
G30  20786950.156                        1332.764          36.200    20784600.083                         995.223          35.900  
J02  40899004.471                        1459.815          38.300    40896662.792                        1090.140          33.800  
J03  41985952.093                        -640.782          40.000    41983604.418                        -478.524          35.400  
R02  22353221.549                       -2738.550          26.600  
R03  22471094.248                        -900.100          23.000  
R12  21948411.494                         400.351          35.300  
R13  21978731.304                        1726.900          29.100  
R23  19451698.232                        -404.319          33.100  
R24  20187729.488                        2956.052          32.400  
> 2022  3 11  7 35 23.4377560  0 32
C06  37821246.744                       -1027.350          24.600  
C07  38216574.365                        -227.103          30.600  
C08  38744977.459                        1687.250          26.400  
C09  36382477.084                        -663.350          27.200  
C10  37787907.125                        -264.377          36.800  
C12  22621239.990                        2253.150          27.800  
C13  38721624.826                        1516.415          33.800  
C16  37741053.161                       -1061.800          25.200  
C24  25385119.296                        2004.382          32.600  
C26  22669491.287                        1238.015          37.600  
C35  22859370.836                       -2063.244          31.300  
E02                                                                  27120103.092                         603.900          22.000  
E03                                                                  25430126.838                        -104.165          32.400    25428218.360                         -78.151          24.300  
E05                                                                  25027227.660                       -2029.350          22.600    25025317.682                       -1516.950          23.100  
E11                                                                  23192847.674                         122.250          22.400    23190938.896                          89.783          28.500  
E25                                                                  25611214.974                         253.219          35.100    25609310.392                         188.492          27.000  
E36                                                                  24819990.727                        2255.500          21.200  
G01  22242608.711                        -598.725          31.900    22240261.936                        -447.650          28.800  
G07  20553765.373                         127.216          36.500  
G13  23615403.345                        2350.800          27.700  
G14  22392855.098                          37.085          34.400    22390515.218                          27.203          24.800  
G17  20367644.022                         -53.750          26.900  
G19  21528600.209                        1878.050          19.800  
G30  20786704.413                        1326.063          33.600    20784346.845                         990.324          33.800  
J02  40898727.849                        1453.677          32.200    40896385.270                        1085.147          26.900  
J03  41986064.901                        -646.964          32.300    41983728.318                        -483.353          33.600  
R02  22353845.803                       -2748.800          24.500  
R03  22471288.300                        -904.750          27.000  
R12  21948344.126                         396.150          25.000  
R13  21978443.589                        1718.500          28.500  
R23  19451774.765                        -412.750          25.300  
R24  20187149.776                        2948.650          26.600  
> 2022  3 11  7 35 24.4377560  0 31
C01  40336008.467                          32.650          30.600  
C03  36918664.944                           4.500          30.000  
C06  37821452.757                       -1033.850          25.400  
C07  38216620.289                        -227.650          22.100  
C08  38744637.850                        1687.046          31.000  
C09  36382606.950                        -662.600          26.400  
C10  37787960.544                        -264.745          37.300  
C12  22620809.244                        2248.350          25.200  
C13  38721330.485                        1515.449          29.500  
C16  37741252.279                       -1064.550          25.800  
C24  25386618.014                        2003.982          33.500  
C26  22669254.506                        1237.469          37.400  
C34  25224163.179                        3024.857          25.200  
C35  22857882.422                       -2064.520          27.400  
E03                                                                                                                                  25428241.499                         -78.250          23.200  
E11                                                                                                                                  23190915.867                          88.479          29.100  
E25                                                                  25611172.159                         252.402          34.700    25609260.382                         188.800          23.000  
E36                                                                                                                                  24817659.296                        1683.350          23.500  
G01  22242710.096                        -599.944          30.000    22240376.812                        -448.595          29.500  
G07  20553743.544                         126.036          36.600  
G13  23614956.410                        2347.050          25.000  
G14  22392850.057                          36.624          32.700    22390505.980                          26.737          27.500  
G17  20367605.105                         -60.850          21.600  
G19  21528251.606                        1875.800          21.000  
G30  20786453.542                        1325.069          31.900    20784095.075                         989.490          34.100  
J02  40898441.003                        1453.003          33.000    40896109.217                        1084.517          27.900  
J03  41986195.366                        -647.612          33.500    41983851.888                        -483.792          34.000  
R02  22354320.730                       -2745.750          24.400  
R03  22471466.132                        -903.600          27.800  
R13  21978111.175                        1719.910          29.000  
R23  19451879.448                        -417.150          22.900  
> 2022  3 11  7 35 25.4377560  0 30
C06  37821651.378                       -1022.750          23.000  
C07  38216662.117                        -218.750          27.100  
C08  38744315.431                        1700.567          30.400  
C09  36382734.219                        -650.550          25.700  
C10  37788006.270                        -251.254          36.200  
C12  22620379.799                        2267.550          24.800  
C13  38721038.945                        1530.400          29.000  
C16  37741461.692                       -1048.400          25.300  
C24  25386216.450                        2017.535          31.200  
C26  22669016.029                        1250.821          35.700  
C34  25223576.643                        3031.830          24.600  
C35  22860174.193                       -2054.250          26.100  
E02                                                                  27119874.863                         613.600          18.700  
E03                                                                  25430164.226                         -90.800          22.300    25428261.743                         -69.200          24.300  
E05                                                                  25028008.832                       -2022.150          18.700  
E11                                                                                                                                  23190891.142                          98.830          28.200  
E25                                                                  25611115.356                         266.213          32.900  
G01  22242844.561                        -587.700          27.900    22240488.492                        -438.478          29.800  
G07  20553712.223                         139.003          35.400  
G13  23614500.883                        2364.550          25.900  
G14  22392842.120                          50.263          34.300    22390498.343                          37.399          26.900  
G17  20367661.923                         -46.400          22.500  
G19  21527924.390                        1885.400          25.300  
G30  20786194.079                        1338.248          30.000    20783841.608                         999.058          33.600  
J02  40898157.557                        1466.681          31.400    40895831.767                        1095.286          27.600  
J03  41986321.437                        -634.370          33.000    41983973.462                        -473.923          34.000  
R03  22471606.593                        -896.000          26.700  
R13  21977759.076                        1733.450          28.600  
R23  19451941.064                        -405.800          22.300  
R24  20186106.112                        2950.600          20.800  
> 2022  3 11  7 35 26.4377560  0 28
C03  36918650.255                          40.800          30.200  
C06  37821834.993                       -1017.750          26.100  
C07  38216703.631                        -208.340          29.300  
C08  38743988.500                        1708.000          28.400  
C09  36382863.872                        -644.500          25.800  
C10  37788051.381                        -243.530          37.100  
C12  22619939.546                        2271.700          26.600  
C13  38720747.689                        1534.750          26.900  
C16  37741667.492                       -1044.050          28.000  
C24  25385838.854                        2025.219          31.500  
C26  22668776.937                        1258.189          38.400  
C35  22858669.377                       -2042.704          27.100  
E03                                                                  25430184.754                         -84.763          30.600    25428273.877                         -64.400          23.600  
E05                                                                  25028368.426                       -2008.000          20.700  
E11                                                                                                                                  23190868.201                         104.998          28.200  
E25                                                                  25611062.135                         274.758          33.500    25609162.950                         205.200          26.900  
G01  22242930.444                        -581.600          26.100    22240600.158                        -432.355          29.600  
G07  20553692.280                         146.265          35.900  
G13  23614047.440                        2371.400          25.800  
G14  22392829.372                          57.893          33.900    22390486.793                          43.989          28.400  
G19  21527549.193                        1892.300          23.900  
G30  20785923.209                        1345.558          31.200    20783586.027                        1004.796          31.900  
J02  40897876.194                        1474.050          26.100    40895556.100                        1101.743          26.400  
J03  41986458.284                        -628.050          25.100    41984092.023                        -467.738          35.100  
R02  22355292.358                       -2724.450          19.700  
R03  22471761.128                        -885.300          27.200  
R13  21977443.237                        1741.150          28.500  
R23  19452044.335                        -393.200          26.000  
> 2022  3 11  7 35 27.4377561  0 30
C01  40336029.473                          21.250          27.100  
C06  37822058.958                       -1034.450          24.900  
C07  38216773.203                        -227.850          26.400  
C08  38743695.023                        1686.410          29.600  
C09  36383016.487                        -665.100          25.600  
C10  37788131.446                        -265.043          37.700  
C12  22619517.159                        2249.950          27.100  
C13  38720484.791                        1513.300          26.100  
C16  37741887.260                       -1061.300          27.900  
C24  25385491.715                        2003.753          31.700  
C26  22666685.305                        1236.060          22.500  
C35  22859093.304                       -2066.047          27.600  
E03                                                                  25430235.439                        -107.225          30.000    25428320.965                         -80.300          22.500  
E05                                                                  25028810.940                       -2038.250          21.500  
E11                                                                                                                                  23190870.619                          87.445          27.200  
E25                                                                  25611042.070                         252.904          33.500    25609140.486                         188.494          26.800  
E36                                                                                                                                  24816395.092                        1681.400          24.100  
G01  22243068.969                        -598.950          27.800    22240743.779                        -450.105          29.000  
G07  20553687.803                         123.790          35.400  
G13  23613629.250                        2347.650          22.800  
G14  22392851.277                          35.790          33.700    22390507.199                          26.745          28.500  
G19  21527241.926                        1871.700          25.000  
G30  20785700.184                        1323.159          31.200    20783361.503                         988.173          31.600  
J02  40897626.188                        1451.050          26.300    40895305.494                        1084.485          25.000  
J03  41986611.799                        -647.550          25.500    41984244.338                        -483.951          34.300  
R02  22355823.910                       -2746.000          23.100  
R03  22471979.397                        -905.950          30.100  
R12  21948119.058                         398.550          20.200  
R13  21977120.681                        1718.550          28.400  
R23  19452136.391                        -416.250          26.800  
