     3.03           OBSERVATION DATA    M: Mixed            RINEX VERSION / TYPE
Geo++ RINEX Logger  Geo++               20220203 050234 UTC PGM / RUN BY / DATE
************************************************************COMMENT
This file was generated by the Geo++ RINEX Logger App       COMMENT
for Android devices (Version 2.1.6). If you encounter       COMMENT
any issues, please send an email to android@geopp.de        COMMENT
Filtering Mode: BEST                                        COMMENT
************************************************************COMMENT
Geo++                                                       MARKER NAME
GEODETIC                                                    MARKER TYPE
Geo++               Geo++                                   OBSERVER / AGENCY
unknown             OnePlus             IN2011              REC # / TYPE / VERS
unknown             IN2011                                  ANT # / TYPE
  1501571.1313  6066672.9642  1272401.5266                  APPROX POSITION XYZ
        0.0000        0.0000        0.0000                  ANTENNA: DELTA H/E/N
G    8 C1C L1C D1C S1C C5Q L5Q D5Q S5Q                      SYS / # / OBS TYPES
R    4 C1C L1C D1C S1C                                      SYS / # / OBS TYPES
E   12 C1B L1B D1B S1B C1C L1C D1C S1C C5Q L5Q D5Q S5Q      SYS / # / OBS TYPES
C    4 C2I L2I D2I S2I                                      SYS / # / OBS TYPES
J    8 C1C L1C D1C S1C C5Q L5Q D5Q S5Q                      SYS / # / OBS TYPES
  2022     2     3     5     2   52.4385923     GPS         TIME OF FIRST OBS
 24 R01  1 R02 -4 R03  5 R04  6 R05  1 R06 -4 R07  5 R08  6 GLONASS SLOT / FRQ #
    R09 -2 R10 -5 R11  0 R12 -1 R13 -2 R14 -7 R15  0 R16 -1 GLONASS SLOT / FRQ #
    R17  4 R18 -3 R19  3 R20  2 R21  4 R22 -3 R23  3 R24  2 GLONASS SLOT / FRQ #
G L1C                                                       SYS / PHASE SHIFT
G L5Q -0.25000                                              SYS / PHASE SHIFT
R L1C                                                       SYS / PHASE SHIFT
E L1B                                                       SYS / PHASE SHIFT
E L1C +0.50000                                              SYS / PHASE SHIFT
E L5Q -0.25000                                              SYS / PHASE SHIFT
C L2I                                                       SYS / PHASE SHIFT
J L1C                                                       SYS / PHASE SHIFT
J L5Q -0.25000                                              SYS / PHASE SHIFT
 C1C    0.000 C1P    0.000 C2C    0.000 C2P    0.000        GLONASS COD/PHS/BIS
                                                            END OF HEADER
> 2022  2  3  5  2 52.4385923  2  0
> 2022  2  3  5  2 52.4385923  0 22
C02  35815391.385                         401.050          30.200  
C09  37930046.740                        1123.400          28.400  
C10  36270880.457                         635.680          29.700  
C21  21982917.008                        1257.838          35.600  
C22  23196709.517                       -1619.062          35.400  
C24  25177762.363                        1709.850          23.700  
C26  22415641.939                         -25.289          32.600  
C29  26427725.131                         975.150          23.400  
E01                                                                  23542920.340                        -370.580          36.700    23541005.566                        -276.839          36.100  
E19                                                                                                                                  23805568.513                         695.400          23.900  
E21                                                                  26155007.830                       -2101.600          24.600  
E31                                                                  25303013.553                        2136.900          27.300    25301099.378                        1595.798          32.600  
G03  20608544.267                        -100.653          32.200    20606186.998                         -75.341          26.100  
G04  22035869.650                        2474.150          26.400  
G07  24364607.398                        1078.750          20.300  
G08  22703818.938                        2789.600          27.500    22701455.974                        2084.391          26.300  
G09  24284645.854                        3129.900          22.800  
J02  42795159.692                          14.300          22.200  
R03  20735269.536                       -1793.200          27.000  
R04  19462847.816                        1894.316          35.400  
R05  22310797.021                        4310.400          22.100  
R15  20044429.295                        -802.100          27.400  
> 2022  2  3  5  2 53.4385925  0 22
C02  35815380.221                         386.800          30.300  
C09  37929894.673                        1123.050          26.700  
C10  36270818.927                         633.256          29.900  
C21  21984622.755                        1254.751          43.100  
C22  23195197.891                       -1621.873          30.000  
C24  25177478.687                        1703.400          23.600  
C26  22417590.817                         -28.078          37.100  
E01                                                                  23543049.778                        -373.474          36.700    23541137.102                        -278.911          35.900  
E19                                                                                                                                  23805450.022                         693.850          22.700  
E21                                                                  26155462.243                       -2104.700          24.400    26153557.961                       -1569.350          18.600  
E31                                                                  25302670.218                        2134.350          27.700    25300753.045                        1593.700          32.600  
G03  20608629.335                        -103.782          32.300    20606267.570                         -77.232          25.400  
G04  22035453.166                        2474.100          27.300  
G07  24364488.908                        1073.300          22.600  
G08  22703356.885                        2789.150          27.000    22700986.726                        2082.677          27.200  
G09  24284142.730                        3128.400          22.900  
G26  23875097.206                       -3073.800          19.600  
J02  42795205.488                           6.600          22.200  
R03  20735684.377                       -1794.600          27.200  
R04  19462565.339                        1890.950          35.400  
R05  22310054.663                        4309.450          22.200  
R15  20044637.579                        -806.900          27.500  
> 2022  2  3  5  2 54.4385928  0 23
C03  37031944.286                         458.350          23.500  
C07  36432051.783                         485.900          20.900  
C09  37929764.238                        1118.200          26.500  
C10  36270784.426                         630.673          30.000  
C16  38142703.523                        1163.800          20.900  
C21  21984473.733                        1251.832          43.100  
C22  23195597.190                       -1624.602          29.400  
C24  25177242.126                        1707.800          24.500  
C26  22415802.830                         -30.477          32.000  
C29  26427516.379                         973.700          22.800  
E01                                                                  23543212.840                        -376.129          36.600    23541298.066                        -281.025          35.500  
E19                                                                                                                                  23805360.360                         691.650          24.900  
E21                                                                  26155950.280                       -2106.050          23.900  
E31                                                                  25302347.917                        2131.450          27.300    25300436.740                        1591.585          33.100  
G03  20608727.642                        -106.753          32.600    20606377.869                         -79.750          22.600  
G04  22035075.702                        2469.900          27.200  
G08  22702907.472                        2785.800          26.600    22700545.107                        2080.795          27.200  
G09  24283618.069                        3120.900          23.100  
J02  42795309.791                           2.400          22.700  
R03  20736077.080                       -1799.050          26.800  
R04  19462296.100                        1887.897          35.400  
R05  22309300.960                        4306.450          23.900  
R15  20044879.486                        -806.700          26.900  
> 2022  2  3  5  2 55.4385930  0 26
C02  35815367.540                         395.600          30.500  
C07  36432024.137                         477.150          23.100  
C09  37929615.776                        1113.050          27.000  
C10  36270723.204                         624.492          29.600  
C16  38142541.871                        1161.550          21.200  
C21  21984293.193                        1245.319          43.400  
C22  23197859.659                       -1631.252          35.700  
C24  25176983.340                        1698.400          25.300  
C26  22415869.319                         -36.975          32.700  
C29  26427382.906                         971.700          22.000  
E01                                                                  23543347.083                        -382.774          36.800    23541430.809                        -285.920          35.500  
E19                                                                                                                                  23805246.374                         688.100          23.600  
E21                                                                  26156419.690                       -2113.000          24.000    26154511.211                       -1575.550          20.100  
E31                                                                  25302006.089                        2125.300          27.900    25300092.813                        1586.705          32.800  
G03  20608810.620                        -113.492          32.400    20606458.748                         -84.900          23.800  
G04  22034656.827                        2462.700          27.000  
G07  24364221.703                        1065.300          20.900  
G08  22702441.230                        2780.000          26.800    22700074.968                        2076.039          26.700  
G09  24283107.158                        3115.750          23.800  
G16  21006074.300                       -1781.150          18.100  
J02  42795339.106                          -0.850          22.500  
J03  40182327.356                          96.350          18.500  
R03  20736534.799                       -1803.700          25.600  
R04  19462010.933                        1880.981          35.600  
R05  22308620.366                        4296.100          24.500  
R15  20045102.767                        -813.900          25.300  
> 2022  2  3  5  2 56.4385933  0 23
C09  37929487.129                        1109.250          26.700  
C10  36270696.785                         623.531          30.100  
C16  38142412.923                        1159.900          21.500  
C21  21982256.367                        1244.009          35.500  
C22  23196375.650                       -1632.269          29.800  
C24  25176742.870                        1697.450          23.100  
C26  22417853.309                         -38.093          37.200  
C29  26427291.433                         961.900          24.000  
E01                                                                  23543507.735                        -383.952          36.400    23541593.260                        -286.808          35.800  
E19                                                                                                                                  23805162.095                         687.502          25.200  
E21                                                                  26156912.213                       -2113.400          24.200  
E31                                                                  25301690.970                        2124.050          27.400    25299777.095                        1585.933          32.900  
G03  20608927.503                        -114.919          32.400    20606569.635                         -85.778          24.100  
G04  22034279.652                        2466.300          27.400  
G07  24364099.951                        1064.950          21.700  
G08  22702001.698                        2781.450          25.900    22699635.735                        2075.766          27.200  
G09  24282592.377                        3117.650          23.900  
J02  42795453.890                           1.650          21.900  
J03  40182397.471                          95.300          18.500  
R03  20736850.443                       -1809.250          26.000  
R04  19461758.171                        1879.435          35.300  
R05  22307896.031                        4294.200          23.700  
R15  20045356.355                        -814.150          27.600  
> 2022  2  3  5  2 57.4385935  0 27
C02  35815368.946                         372.500          30.300  
C07  36432003.059                         475.750          20.400  
C09  37929326.683                        1111.200          27.100  
C10  36270638.269                         620.816          30.400  
C16  38142249.780                        1158.650          21.600  
C21  21983962.729                        1241.116          42.900  
C22  23198638.426                       -1635.207          35.500  
C24  25176488.290                        1692.200          24.700  
C26  22417920.406                         -40.736          36.900  
C29  26427163.365                         960.850          23.900  
E01                                                                  23543643.185                        -386.826          36.900    23541726.911                        -288.831          35.600  
E19                                                                                                                                  23805046.319                         685.400          23.800  
E21                                                                  26157369.340                       -2116.500          24.700  
E31                                                                  25301348.551                        2121.200          28.100    25299433.177                        1583.779          32.700  
G01  24423580.817                        -948.550          16.800  
G03  20609006.292                        -118.088          32.300    20606654.420                         -87.500          23.200  
G04  22033867.381                        2459.700          27.700  
G07  24363964.688                        1062.500          22.500  
G08  22701515.078                        2776.600          27.100    22699165.904                        2073.520          26.900  
G09  24282055.093                        3113.450          23.800  
G16  21006993.071                       -1794.250          20.700  
J02  42795501.800                          -1.500          23.800  
J03  40182448.679                          92.200          18.600  
R03  20737323.160                       -1808.250          26.400  
R04  19461455.624                        1876.261          35.300  
R05  22307121.611                        4292.150          23.900  
R15  20045562.555                        -818.800          27.600  
> 2022  2  3  5  2 58.4385938  0 27
C03  37031948.110                         413.750          23.400  
C07  36431997.747                         474.150          22.600  
C09  37929208.350                        1114.450          26.600  
C10  36270609.274                         625.351          30.600  
C16  38142114.957                        1158.050          21.400  
C21  21981930.520                        1245.010          34.600  
C22  23199039.034                       -1630.863          35.400  
C24  25176251.538                        1691.400          24.300  
C26  22416131.329                         -36.386          32.600  
C29  26427066.617                         967.700          23.600  
E01                                                                  23543803.958                        -382.517          36.300    23541889.483                        -285.442          35.100  
E19                                                                                                                                  23804960.663                         688.900          23.100  
E21                                                                  26157860.784                       -2111.450          25.100    26155950.207                       -1578.350          19.400  
E31                                                                  25301035.652                        2125.050          27.200    25299119.978                        1587.234          32.300  
G03  20609122.995                        -113.899          33.000  
G04  22033488.528                        2466.200          26.500  
G07  24363867.040                        1065.600          20.900  
G08  22701074.467                        2780.750          25.300    22698726.193                        2077.288          25.400  
G09  24281567.115                        3120.950          23.200  
G16  21007365.498                       -1791.850          21.700  
G26  23878381.035                       -3081.450          17.100  
J02  42795581.330                          -1.350          23.400  
J03  40182500.328                          90.500          18.600  
R03  20737774.432                       -1804.850          26.900  
R04  19461199.086                        1880.420          35.900  
R05  22306428.875                        4300.800          22.500  
R15  20045804.872                        -814.800          28.000  
> 2022  2  3  5  2 59.4385940  0 21
C02  35815369.780                         409.800          30.500  
C09  37929050.509                        1114.200          28.100  
C10  36270544.669                         626.575          30.200  
C16  38141949.622                        1159.450          21.400  
C21  21983634.391                        1245.937          42.800  
C22  23199413.325                       -1630.161          36.600  
C26  22416197.733                         -35.282          32.500  
E01                                                                  23543938.415                        -381.482          36.200    23542021.842                        -284.956          35.300  
E19                                                                                                                                  23804845.393                         688.850          23.500  
E21                                                                  26158329.210                       -2109.550          25.500    26156409.639                       -1576.500          21.400  
E31                                                                  25300692.839                        2126.250          27.000    25298775.666                        1587.739          32.300  
G03  20609203.789                        -113.306          32.800    20606847.720                         -84.900          22.500  
G04  22033071.066                        2465.000          27.700  
G08  22700612.637                        2778.400          25.200    22698256.568                        2077.906          25.600  
G09  24281030.636                        3123.100          23.200  
J02  42795607.562                          -0.400          21.400  
J03  40182550.243                          90.500          18.500  
R03  20738125.039                       -1806.000          26.800  
R04  19460902.142                        1880.948          35.100  
R05  22305700.229                        4300.950          23.100  
R15  20046008.281                        -816.050          28.100  
> 2022  2  3  5  3  0.4385943  0 23
C07  36431954.988                         472.200          21.400  
C09  37928924.557                        1104.250          26.700  
C10  36270520.946                         617.542          29.300  
C16  38141816.475                        1159.250          21.200  
C21  21981600.560                        1237.083          35.600  
C22  23197929.013                       -1639.096          30.700  
C24  25175737.205                        1692.150          22.400  
C26  22418181.721                         -44.210          37.000  
C29  26426846.980                         959.200          22.200  
E01                                                                  23544101.163                        -390.518          35.300    23542185.489                        -291.917          35.800  
E19                                                                                                                                  23804759.913                         682.300          23.600  
E21                                                                  26158827.726                       -2118.800          24.900    26156904.857                       -1584.400          20.900  
E31                                                                  25300375.020                        2117.950          27.000    25298460.545                        1580.983          32.400  
G03  20609323.967                        -122.662          32.200  
G04  22032705.880                        2458.100          27.000  
G08  22700184.195                        2775.150          24.300    22697821.530                        2071.368          24.900  
G09  24280539.837                        3111.950          23.200  
J02  42795737.932                          -6.850          22.200  
J03  40182629.949                          89.350          18.300  
R03  20738616.060                       -1814.750          26.100  
R04  19460640.384                        1871.272          34.500  
R05  22304947.112                        4291.300          24.400  
R15  20046248.376                        -823.650          26.100  
> 2022  2  3  5  3  1.4385945  0 24
C02  35815374.245                         402.200          30.700  
C09  37928770.771                        1101.050          26.500  
C10  36270461.594                         612.846          30.100  
C16  38141654.295                        1157.450          21.000  
C21  21981424.289                        1231.816          35.700  
C22  23198305.560                       -1644.206          30.500  
C24  25175485.387                        1686.350          23.600  
C26  22416364.386                         -48.886          31.600  
C29  26426717.477                         956.650          23.300  
E01                                                                  23544237.276                        -395.664          36.100    23542320.403                        -295.571          35.900  
E19                                                                                                                                  23804645.100                         678.950          23.600  
E21                                                                  26159280.719                       -2125.200          24.500  
E31                                                                  25300026.968                        2112.400          27.500    25298119.089                        1577.258          33.100  
G03  20609401.021                        -128.046          32.500  
G04  22032275.685                        2448.950          26.500  
G08  22699693.741                        2769.100          25.100    22697352.962                        2067.891          25.800  
G09  24279988.526                        3112.150          24.000  
G16  21008607.056                       -1785.800          20.000  
J02  42795796.999                         -13.500          21.600  
J03  40182675.225                          88.450          18.300  
R03  20739015.091                       -1819.500          25.600  
R04  19460364.882                        1865.906          34.300  
R05  22304213.826                        4283.950          22.300  
R15  20046477.725                        -830.200          26.000  
> 2022  2  3  5  3  2.4385948  0 23
C07  36431916.432                         470.050          19.800  
C09  37928662.956                        1099.950          27.100  
C10  36270432.325                         609.437          30.000  
C16  38141520.697                        1156.450          21.000  
C21  21981277.501                        1227.912          35.900  
C22  23200593.986                       -1647.915          34.900  
C26  22416465.227                         -52.573          31.300  
C29  26426634.844                         948.800          22.300  
E01                                                                  23544403.471                        -399.361          35.700    23542485.999                        -298.283          36.000  
E19                                                                                                                                  23804564.865                         677.150          22.900  
E21                                                                  26159767.393                       -2128.400          24.400    26157867.308                       -1588.800          19.700  
E31                                                                  25299720.691                        2108.100          27.700    25297808.015                        1574.532          33.100  
G03  20609522.847                        -131.903          33.300  
G04  22031910.648                        2450.100          27.000  
G07  24363332.139                        1057.750          17.900  
G08  22699279.838                        2765.850          22.600    22696915.675                        2065.303          26.900  
G09  24279504.771                        3104.650          23.400  
J02  42795899.938                         -14.950          22.300  
J03  40182750.583                          87.150          17.900  
R03  20739428.615                       -1819.700          25.200  
R04  19460101.175                        1861.935          34.200  
R05  22303534.307                        4284.650          24.100  
R15  20046710.474                        -832.700          26.900  
> 2022  2  3  5  3  3.4385950  0 25
C02  35815381.023                         367.250          30.700  
C07  36431876.632                         460.100          23.200  
C09  37928495.744                        1097.800          26.600  
C10  36270373.638                         610.018          30.300  
C16  38141358.283                        1155.900          21.000  
C21  21982989.089                        1228.307          42.200  
C22  23199086.102                       -1647.495          30.400  
C24  25174996.008                        1682.150          22.400  
C26  22418422.045                         -51.981          36.700  
C29  26426511.702                         952.150          22.900  
E01                                                                  23544540.549                        -398.986          36.100    23542622.477                        -298.004          36.400  
E19                                                                                                                                  23804450.417                         676.250          25.600  
E21                                                                  26160245.035                       -2126.750          24.300    26158332.659                       -1587.700          20.900  
E31                                                                  25299383.197                        2108.400          27.500    25297465.724                        1574.981          33.200  
G03  20609593.971                        -131.763          33.100  
G04  22031507.800                        2449.900          26.100  
G08  22698794.247                        2769.100          23.300    22696449.570                        2066.037          24.900  
G09  24278937.337                        3097.950          21.500  
G16  21009449.956                       -1810.900          20.700  
J02  42795986.351                         -12.000          23.500  
J03  40182796.225                          85.750          17.700  
R03  20739827.412                       -1824.300          25.400  
R04  19459811.948                        1861.919          34.200  
R05  22302772.008                        4286.650          23.100  
R15  20046928.196                        -830.450          26.800  
> 2022  2  3  5  3  4.4385952  0 24
C03  37031953.936                         349.950          23.300  
C07  36431871.064                         464.350          22.000  
C09  37928353.171                        1097.350          26.500  
C10  36270317.106                         607.875          31.800  
C21  21980926.345                        1225.815          35.600  
C22  23199464.269                       -1649.960          30.300  
C24  25174714.332                        1676.250          24.600  
C26  22416605.131                         -54.251          30.200  
E01                                                                  23544677.083                        -401.459          35.300    23542758.112                        -299.953          35.300  
E19                                                                  23806246.902                         902.900          20.100    23804340.822                         674.800          23.800  
E21                                                                  26160710.141                       -2129.900          24.300  
E31                                                                  25299038.864                        2106.400          26.400    25297125.588                        1573.094          32.500  
G01  24425340.213                        -956.000          16.200  
G03  20609687.634                        -134.476          34.500  
G04  22031124.194                        2450.250          26.300  
G07  24363029.550                        1050.650          19.600  
G08  22698324.001                        2761.950          25.100    22695982.922                        2064.272          26.100  
G09  24278417.026                        3106.050          22.500  
G16  21009851.207                       -1810.750          24.600  
J02  42796057.230                         -11.800          22.600  
R03  20740208.276                       -1827.600          27.000  
R04  19459526.374                        1859.009          35.500  
R05  22302053.534                        4280.300          23.300  
R15  20047153.169                        -836.500          27.200  
> 2022  2  3  5  3  5.4385955  0 25
C02  35815384.760                         378.650          30.200  
C05  36435831.334                         341.850          25.800  
C09  37928229.068                        1092.050          25.800  
C10  36270297.031                         603.029          31.800  
C16  38141086.810                        1144.600          20.000  
C21  21980782.156                        1220.519          35.400  
C22  23201752.896                       -1655.364          33.000  
C24  25174481.404                        1675.900          22.300  
C26  22416705.872                         -59.304          30.700  
E01                                                                  23544842.879                        -406.678          36.400    23542924.508                        -303.754          35.000  
E04                                                                                                                                  26078904.285                        1894.050          18.900  
E19                                                                                                                                  23804258.390                         668.950          22.500  
E21                                                                  26161198.514                       -2134.000          25.200  
E31                                                                  25298728.590                        2102.050          27.100    25296815.014                        1569.131          32.500  
G03  20609800.367                        -139.920          35.100  
G04  22030717.387                        2442.700          25.800  
G07  24362957.910                        1042.150          22.100  
G08  22697901.905                        2761.050          24.800    22695546.135                        2060.546          26.200  
G09  24277969.746                        3103.000          23.200  
G16  21010299.108                       -1814.450          27.000  
J02  42796135.187                         -20.050          23.400  
R03  20740680.461                       -1835.500          27.600  
R04  19459282.054                        1853.408          35.900  
R05  22301322.651                        4275.800          22.600  
R15  20047390.316                        -840.620          29.700  
> 2022  2  3  5  3  6.4385957  0 24
C05  36435821.954                         348.950          25.600  
C09  37928085.981                        1091.100          24.600  
C10  36270234.288                         599.563          31.400  
C16  38140930.532                        1144.250          22.300  
C21  21982494.784                        1216.712          42.600  
C22  23202134.445                       -1658.858          33.000  
C26  22418663.731                         -62.806          37.300  
C29  26426166.395                         940.900          20.200  
E01                                                                  23544980.998                        -410.238          36.900    23543062.626                        -306.392          33.900  
E04                                                                                                                                  26078482.991                        1891.500          21.000  
E19                                                                                                                                  23804148.880                         668.600          23.700  
E21                                                                  26161669.102                       -2138.400          25.100    26159756.426                       -1592.900          17.700  
E31                                                                  25298387.340                        2097.500          27.300    25296475.263                        1566.532          32.600  
G03  20609889.619                        -143.796          35.600  
G04  22030331.768                        2437.150          25.200  
G07  24362842.704                        1038.600          23.100  
G08  22697431.144                        2760.950          26.400    22695081.971                        2058.103          25.400  
G16  21010696.247                       -1819.600          26.600  
J01  37604976.865                         960.900          18.300  
J02  42796165.080                         -23.200          22.400  
R03  20741074.602                       -1836.350          27.100  
R04  19458980.977                        1849.369          36.000  
R05  22300639.637                        4270.450          22.200  
R15  20047612.675                        -844.525          29.500  
> 2022  2  3  5  3  7.4385959  0 24
C05  36435822.317                         327.000          25.400  
C07  36431833.578                         447.450          20.200  
C09  37927937.347                        1089.500          25.700  
C10  36270185.785                         598.239          30.800  
C21  21980434.674                        1215.115          34.900  
C22  23200625.953                       -1660.390          29.300  
C24  25173983.726                        1670.350          20.700  
C26  22416850.049                         -64.224          31.100  
E01                                                                  23545117.466                        -411.953          36.800    23543200.593                        -307.629          34.700  
E19                                                                                                                                  23804032.623                         668.600          23.400  
E21                                                                  26162132.944                       -2138.600          23.900  
E31                                                                  25298049.237                        2096.700          27.700    25296135.961                        1565.317          32.700  
G03  20609980.519                        -145.654          34.600  
G04  22029914.220                        2436.050          26.500  
G08  22696953.038                        2753.900          24.800    22694618.255                        2057.230          24.300  
G09  24276869.485                        3097.550          22.100  
G16  21011105.826                       -1821.750          24.600  
J01  37604856.711                         959.500          18.500  
J02  42796267.372                         -27.300          24.200  
J03  40183031.378                          61.900          17.500  
R03  20741455.701                       -1840.000          26.900  
R04  19458692.639                        1847.444          34.900  
R05  22299838.655                        4276.700          23.200  
R15  20047823.193                        -846.050          28.700  
> 2022  2  3  5  3  8.4385962  0 23
C02  35815397.230                         332.250          28.900  
C05  36435857.894                         307.050          25.700  
C09  37927818.531                        1086.700          25.400  
C10  36270158.406                         593.685          31.700  
C21  21982178.169                        1210.249          42.000  
C22  23201038.369                       -1665.085          28.500  
C26  22416953.680                         -68.722          30.700  
E01                                                                  23545287.351                        -416.587          36.500    23543369.578                        -311.201          34.800  
E19                                                                                                                                  23803955.778                         663.800          23.300  
E21                                                                  26162636.797                       -2143.150          26.500    26160723.522                       -1599.800          21.200  
E31                                                                  25297737.055                        2092.050          27.200    25295827.677                        1561.941          32.100  
G03  20610093.743                        -150.534          34.900  
G04  22029539.681                        2434.500          26.800  
G07  24362569.858                        1030.650          21.600  
G08  22696522.139                        2749.850          26.400  
G09  24276383.723                        3096.000          21.700  
G16  21011550.920                       -1828.800          25.500  
J01  37604770.273                         958.700          18.300  
J02  42796324.835                         -29.900          23.600  
R03  20741894.799                       -1842.150          26.700  
R04  19458446.112                        1842.435          35.500  
R05  22299091.774                        4268.850          23.600  
R15  20048069.824                        -851.062          29.700  
> 2022  2  3  5  3  9.4385964  0 24
C05  36435848.592                         313.400          25.500  
C07  36431792.100                         446.200          20.300  
C09  37927672.524                        1079.700          25.500  
C10  36270107.432                         591.367          31.000  
C16  38140478.401                        1134.450          20.400  
C21  21980118.586                        1207.491          34.800  
C22  23203303.592                       -1667.871          33.200  
C26  22417025.322                         -71.348          31.300  
C29  26425817.393                         933.250          19.800  
E01                                                                  23545425.247                        -419.316          36.600    23543509.873                        -313.186          34.300  
E04                                                                                                                                  26077247.802                        1886.050          18.800  
E19                                                                                                                                  23803849.943                         662.300          23.900  
E21                                                                  26163096.071                       -2145.250          25.600    26161190.290                       -1600.650          21.800  
E31                                                                  25297398.581                        2088.600          27.900    25295490.402                        1559.963          32.300  
G03  20610179.775                        -153.434          34.800  
G04  22029162.234                        2430.350          26.200  
G07  24362432.844                        1031.850          23.900  
G08  22696082.334                        2749.600          27.000    22693720.569                        2052.300          23.700  
G16  21011926.551                       -1827.900          28.300  
J01  37604649.748                         955.150          18.200  
R03  20742297.412                       -1846.650          28.000  
R04  19458156.804                        1839.258          36.500  
R05  22298366.867                        4268.700          22.600  
R15  20048273.674                        -854.046          30.100  
> 2022  2  3  5  3 10.4385966  0 24
C05  36435848.794                         308.350          25.400  
C09  37927516.234                        1078.350          24.400  
C10  36270054.571                         588.230          31.300  
C21  21981836.299                        1204.056          42.600  
C22  23201797.937                       -1671.195          29.000  
C24  25173227.744                        1660.450          19.800  
C26  22418987.365                         -74.473          37.000  
E01                                                                  23545566.651                        -422.633          37.000    23543648.878                        -315.686          34.400  
E19                                                                                                                                  23803738.922                         662.400          22.400  
E21                                                                  26163564.249                       -2149.350          25.700    26161656.969                       -1603.000          20.900  
E31                                                                  25297063.615                        2085.700          28.300    25295152.737                        1557.444          32.400  
G03  20610272.013                        -157.081          35.000    20607926.137                        -117.600          22.100  
G04  22028740.328                        2423.300          25.100  
G07  24362265.762                        1024.350          24.300  
G08  22695624.453                        2743.050          27.800    22693257.892                        2049.200          22.800  
G09  24275329.246                        3089.050          20.700  
G16  21012349.760                       -1832.100          26.800  
J01  37604533.331                         953.300          18.000  
J02  42796480.620                         -34.500          22.300  
J03  40183172.975                          52.750          19.300  
R03  20742689.142                       -1849.200          28.600  
R04  19457885.993                        1835.656          36.500  
R05  22297657.460                        4260.800          22.800  
R15  20048521.804                        -857.475          30.400  
> 2022  2  3  5  3 11.4385968  0 25
C02  35815356.177                         355.750          27.500  
C05  36435848.019                         303.200          25.100  
C09  37927377.855                        1072.900          26.000  
C10  36269996.836                         584.901          30.500  
C16  38140166.944                        1122.400          21.500  
C21  21979776.549                        1200.490          35.400  
C22  23204062.993                       -1674.860          31.800  
C26  22417175.544                         -77.722          31.100  
E01                                                                  23545704.980                        -426.146          36.800    23543789.606                        -318.308          34.300  
E04                                                                                                                                  26076410.209                        1879.750          19.600  
E19                                                                                                                                  23803633.220                         658.200          23.100  
E21                                                                  26164041.643                       -2152.750          24.600    26162128.367                       -1605.850          22.000  
E31                                                                  25296727.672                        2082.257          29.600    25294816.495                        1554.774          31.700  
G03  20610360.276                        -160.948          34.100    20608006.906                        -119.777          24.900  
G04  22028350.422                        2425.900          27.300  
G07  24362136.076                        1021.100          24.300  
G08  22695149.707                        2741.890          28.700    22692795.137                        2047.750          23.400  
G09  24274792.143                        3086.700          22.700  
G16  21012758.802                       -1834.500          27.500  
J01  37604409.641                         950.800          18.200  
J02  42796545.200                         -40.200          23.600  
R03  20743067.905                       -1854.201          29.000  
R04  19457599.216                        1831.641          37.000  
R05  22296898.810                        4257.350          21.100  
R15  20048759.964                        -861.342          29.500  
> 2022  2  3  5  3 12.4385971  0 24
C05  36435874.549                         303.950          25.000  
C09  37927255.987                        1076.200          24.200  
C10  36269974.500                         584.977          30.900  
C16  38140048.374                        1120.000          22.700  
C21  21981522.089                        1200.108          41.700  
C22  23204475.656                       -1674.986          31.300  
C24  25172742.953                        1657.650          21.200  
C26  22417278.521                         -77.898          31.400  
E01                                                                  23545878.408                        -426.394          36.700    23543960.935                        -318.367          34.500  
E04                                                                                                                                  26076019.128                        1879.900          22.600  
E19                                                                                                                                  23803555.722                         656.550          23.000  
E21                                                                  26164545.742                       -2151.650          24.800  
E31                                                                  25296419.334                        2082.250          28.800    25294509.956                        1554.663          32.300  
G03  20610479.442                        -161.382          34.400    20608130.568                        -120.241          24.300  
G04  22027977.929                        2423.700          28.400  
G07  24362043.289                        1020.150          23.700  
G08  22694713.357                        2742.100          28.500    22692361.485                        2047.550          23.800  
G09  24274294.636                        3080.050          21.400  
G16  21013196.347                       -1836.429          28.700  
J01  37604314.455                         949.950          18.100  
J02  42796658.670                         -41.400          21.200  
R03  20743533.031                       -1854.595          29.300  
R04  19457334.948                        1831.119          37.300  
R15  20048962.772                        -861.555          30.000  
> 2022  2  3  5  3 13.4385973  0 24
C05  36435860.379                         317.550          24.800  
C07  36431723.543                         437.550          18.800  
C09  37927115.305                        1081.800          23.900  
C10  36269922.555                         586.729          30.900  
C21  21979465.133                        1201.746          35.200  
C22  23202973.016                       -1673.427          28.900  
C24  25172492.247                        1656.650          22.100  
C26  22419243.281                         -76.145          36.800  
E01                                                                  23546019.230                        -424.682          36.600    23544101.758                        -317.243          34.100  
E19                                                                                                                                  23803449.815                         658.800          24.500  
E21                                                                  26165006.144                       -2149.050          25.100    26163096.466                       -1607.500          18.500  
E31                                                                  25296086.184                        2083.200          28.900    25294174.108                        1555.955          32.300  
G01  24427603.922                        -973.850          15.800  
G03  20610575.596                        -159.949          34.000    20608219.227                        -119.310          25.700  
G04  22027583.622                        2427.050          28.200  
G07  24361912.799                        1023.750          25.000  
G08  22694267.786                        2743.987          28.600    22691901.224                        2049.160          24.200  
G16  21013612.979                       -1834.500          27.600  
J01  37604195.957                         949.050          18.500  
J02  42796688.270                         -38.050          21.300  
R03  20743939.170                       -1853.429          29.800  
R04  19457056.361                        1832.459          37.000  
R05  22295475.164                        4260.650          19.600  
R15  20049192.034                        -860.023          30.400  
> 2022  2  3  5  3 14.4385975  0 26
C02  35815357.764                         355.600          26.800  
C05  36435853.803                         323.200          24.800  
C09  37926961.531                        1078.500          23.300  
C10  36269871.610                         584.016          30.800  
C16  38139732.033                        1122.200          20.100  
C21  21979294.571                        1198.805          34.600  
C22  23203353.472                       -1676.547          30.000  
C24  25172223.652                        1652.050          21.700  
C26  22417428.657                         -78.872          30.900  
C29  26425278.780                         923.900          18.300  
C35  25343634.187                        1619.050          16.700  
E01                                                                  23546159.553                        -427.674          36.200    23544243.279                        -319.422          34.400  
E04                                                                                                                                  26075178.749                        1880.800          21.000  
E19                                                                                                                                  23803339.211                         655.950          22.000  
E21                                                                  26165474.139                       -2152.400          25.700  
E31                                                                  25295742.342                        2081.100          27.600    25293837.760                        1553.788          31.800  
G03  20610664.054                        -163.281          34.000    20608311.283                        -121.050          22.300  
G04  22027182.818                        2423.850          28.000  
G07  24361753.329                        1016.950          21.100  
G08  22693790.535                        2742.400          27.900    22691441.662                        2047.020          24.300  
G09  24273246.501                        3084.350          21.400  
G16  21014012.622                       -1835.700          25.200  
J01  37604067.965                         948.650          18.200  
R03  20744360.098                       -1856.300          25.600  
R04  19456764.382                        1829.096          35.300  
R15  20049415.698                        -864.250          28.400  
> 2022  2  3  5  3 15.4385977  0 21
C05  36435855.977                         319.400          24.600  
C07  36431699.354                         431.250          22.300  
C09  37926817.106                        1074.300          25.000  
C10  36269816.823                         580.765          30.700  
C21  21981011.857                        1194.760          41.500  
C22  23203735.783                       -1679.940          29.700  
C24  25171967.404                        1650.550          22.000  
C26  22417503.380                         -82.503          30.400  
E01                                                                  23546301.130                        -431.340          35.500    23544385.156                        -322.299          34.500  
E19                                                                                                                                  23803232.260                         653.700          22.600  
E21                                                                  26165938.293                       -2155.750          24.200  
E31                                                                  25295415.343                        2076.500          27.900    25293502.068                        1550.995          32.000  
G03  20610749.870                        -166.982          34.200    20608407.891                        -124.800          22.900  
G04  22026758.687                        2423.450          26.800  
G08  22693330.429                        2734.550          23.600    22690978.257                        2044.687          24.400  
G09  24272703.052                        3078.300          21.000  
J01  37603942.727                         948.500          18.100  
J03  40183447.873                          44.000          17.100  
R04  19456505.436                        1825.229          33.800  
R05  22293886.958                        4258.300          20.600  
R15  20049648.412                        -868.650          25.600  
> 2022  2  3  5  3 16.4385980  0 22
C03  37031953.359                         337.300          22.300  
C09  37926700.738                        1070.850          25.100  
C10  36269794.590                         580.060          30.800  
C16  38139448.156                        1114.050          21.700  
C21  21980873.604                        1193.751          42.100  
C22  23204148.549                       -1680.952          30.000  
C24  25171742.512                        1646.950          24.600  
C26  22419498.751                         -83.227          37.300  
E01                                                                  23546473.462                        -432.307          37.500    23544556.889                        -322.874          35.600  
E04                                                                                                                                  26074373.533                        1877.650          22.100  
E19                                                                                                                                  23803159.062                         654.400          24.800  
E21                                                                  26166446.393                       -2156.750          24.200    26164531.918                       -1609.150          17.300  
E31                                                                  25295108.907                        2075.300          28.400    25293196.231                        1550.377          32.800  
G03  20610875.734                        -168.235          35.300    20608522.963                        -125.529          26.600  
G04  22026412.379                        2420.757          29.100  
G07  24361545.599                        1014.550          22.200  
G08  22692899.879                        2735.350          27.600    22690548.607                        2044.048          26.000  
G09  24272202.051                        3082.400          21.900  
G16  21014870.654                       -1840.800          24.000  
J02  42796951.234                         -43.250          21.300  
R04  19456245.768                        1823.808          36.000  
R15  20049898.691                        -868.156          29.200  
> 2022  2  3  5  3 17.4385982  0 25
C02  35815375.416                         344.350          29.200  
C09  37926563.371                        1077.300          26.100  
C10  36269742.664                         581.355          30.600  
C16  38139291.602                        1120.600          23.700  
C21  21980702.661                        1194.849          42.200  
