     3.03           OBSERVATION DATA    M: Mixed            RINEX VERSION / TYPE
Geo++ RINEX Logger  Geo++               20220204 101129 UTC PGM / RUN BY / DATE
************************************************************COMMENT
This file was generated by the Geo++ RINEX Logger App       COMMENT
for Android devices (Version 2.1.6). If you encounter       COMMENT
any issues, please send an email to android@geopp.de        COMMENT
Filtering Mode: BEST                                        COMMENT
************************************************************COMMENT
Geo++                                                       MARKER NAME
GEODETIC                                                    MARKER TYPE
Geo++               Geo++                                   OBSERVER / AGENCY
unknown             OnePlus             IN2011              REC # / TYPE / VERS
unknown             IN2011                                  ANT # / TYPE
  1501561.2162  6066660.6150  1272387.9192                  APPROX POSITION XYZ
        0.0000        0.0000        0.0000                  ANTENNA: DELTA H/E/N
G    8 C1C L1C D1C S1C C5Q L5Q D5Q S5Q                      SYS / # / OBS TYPES
R    4 C1C L1C D1C S1C                                      SYS / # / OBS TYPES
E   12 C1B L1B D1B S1B C1C L1C D1C S1C C5Q L5Q D5Q S5Q      SYS / # / OBS TYPES
C    4 C2I L2I D2I S2I                                      SYS / # / OBS TYPES
J    8 C1C L1C D1C S1C C5Q L5Q D5Q S5Q                      SYS / # / OBS TYPES
  2022     2     4    10    11   47.4468292     GPS         TIME OF FIRST OBS
 24 R01  1 R02 -4 R03  5 R04  6 R05  1 R06 -4 R07  5 R08  6 GLONASS SLOT / FRQ #
    R09 -2 R10 -5 R11  0 R12 -1 R13 -2 R14 -7 R15  0 R16 -1 GLONASS SLOT / FRQ #
    R17  4 R18 -3 R19  3 R20  2 R21  4 R22 -3 R23  3 R24  2 GLONASS SLOT / FRQ #
G L1C                                                       SYS / PHASE SHIFT
G L5Q -0.25000                                              SYS / PHASE SHIFT
R L1C                                                       SYS / PHASE SHIFT
E L1B                                                       SYS / PHASE SHIFT
E L1C +0.50000                                              SYS / PHASE SHIFT
E L5Q -0.25000                                              SYS / PHASE SHIFT
C L2I                                                       SYS / PHASE SHIFT
J L1C                                                       SYS / PHASE SHIFT
J L5Q -0.25000                                              SYS / PHASE SHIFT
 C1C    0.000 C1P    0.000 C2C    0.000 C2P    0.000        GLONASS COD/PHS/BIS
                                                            END OF HEADER
> 2022  2  4 10 11 47.4468292  2  0
> 2022  2  4 10 11 47.4468292  0 31
C02  35805836.345                          21.250          25.600  
C06  37867132.240                       -1156.900          29.100  
C07  38227852.718                        -157.500          24.200  
C09  36624677.173                        -888.440          32.500  
C10  37821427.980                        -187.550          23.600  
C13  38411057.088                        1520.950          24.400  
C24  25035464.319                        2085.783          34.900  
C26  22468296.232                        1124.824          32.200  
C34  24711267.256                        2812.350          19.300  
C35  23272124.953                       -2392.752          31.300  
E01                                                                  27258517.731                         695.569          32.100  
E04                                                                  28556350.160                        1316.950          20.500  
E13                                                                  24433705.607                        -393.355          34.800    24431797.129                        -293.760          31.800  
E21                                                                  25607708.462                         366.450          28.700  
E26                                                                  24684241.865                        2087.363          32.100    24682326.191                        1558.678          29.700  
E27                                                                  26661613.859                        -246.250          22.700    26659702.382                        -183.611          25.200  
G01  22369240.007                       -1107.250          27.200    22366887.836                        -827.950          18.500  
G07  20577813.686                        -343.850          27.600  
G09                                                                  23805983.970                       -2367.779          23.900  
G13  23290620.349                        1961.800          23.800  
G14  22386980.826                          83.904          31.100  
G17  20412230.817                        -610.889          39.200  
G19  21259918.275                        1439.850          24.200  
G30  20630911.127                        1068.049          33.800    20628559.855                         797.642          25.300  
J02  40613754.293                        1487.600          23.200  
J03  41992896.133                        -656.300          21.200  
R08  22664081.992                       -1352.350          19.200  
R09  21730488.706                         218.000          25.200  
R10  21712335.673                        1724.213          24.600  
R20  20078150.496                       -1973.400          26.500  
R21  20053894.588                        2619.750          28.300  
> 2022  2  4 10 11 48.4468292  0 29
C02  35805840.252                          14.050          25.400  
C03  36971292.426                          13.050          28.900  
C06  37867360.391                       -1159.151          30.000  
C07  38227884.805                        -158.550          24.400  
C09  36624855.260                        -890.318          31.900  
C10  37821455.570                        -192.050          23.800  
C12  22600364.712                        1855.000          21.500  
C13  38410757.006                        1514.050          23.300  
C24  25033182.308                        2083.986          26.800  
C26  22468077.693                        1122.976          33.100  
C35  23272573.452                       -2394.803          31.500  
E01                                                                  27258385.232                         693.894          31.700  
E04                                                                  28556101.641                        1314.450          20.900  
E13                                                                  24433787.160                        -395.598          34.400    24431871.487                        -295.349          32.900  
E21                                                                  25607632.924                         364.700          28.600  
E26                                                                  24683839.853                        2085.350          32.400    24681930.774                        1557.266          29.600  
E27                                                                  26661658.837                        -247.350          21.100    26659750.958                        -185.175          24.700  
G01  22369455.268                       -1111.900          26.900  
G07  20577882.648                        -348.950          26.400  
G09                                                                  23806588.661                       -2368.850          22.900  
G13  23290251.314                        1959.400          25.700  
G14  22386956.252                          82.308          31.300  
G17  20412344.747                        -613.075          39.200  
G19  21259640.377                        1437.350          23.900  
G30  20630712.374                        1065.905          33.900    20628357.505                         795.842          26.300  
J02  40613489.586                        1488.350          24.000  
R09  21730420.962                         222.450          24.900  
R20  20078517.451                       -1974.800          26.800  
R21  20053448.206                        2615.400          28.200  
> 2022  2  4 10 11 49.4468292  0 29
C02  35805840.328                          13.550          25.100  
C06  37867579.615                       -1155.511          30.900  
C07  38227930.749                        -156.650          25.300  
C08  38435520.838                        1649.600          18.500  
C09  36625024.718                        -886.736          32.500  
C10  37821491.022                        -183.300          25.600  
C12  22600006.536                        1855.200          22.800  
C24  25034661.260                        2088.088          34.900  
C26  22467864.017                        1126.534          34.800  
C34  24708311.387                        2808.172          20.000  
C35  23273040.904                       -2391.331          32.100  
E01                                                                  27258257.596                         697.660          32.200    27256347.618                         520.200          19.300  
E04                                                                  28555839.998                        1317.450          22.400  
E13                                                                  24433856.488                        -392.307          35.100    24431946.511                        -292.916          33.200  
E21                                                                  25607564.947                         368.350          28.800  
E26                                                                  24683445.401                        2088.772          32.800    24681533.325                        1559.818          30.400  
E27                                                                  26661700.884                        -245.450          22.500    26659797.801                        -182.113          26.000  
G01  22369654.406                       -1107.800          27.400    22367308.829                        -825.750          20.400  
G07  20577954.674                        -343.450          25.300  
G09                                                                  23807191.919                       -2366.550          21.500  
G13  23289868.255                        1962.800          27.000  
G14  22386941.638                          86.135          32.900  
G17  20412459.643                        -609.881          41.800  
G19  21259345.756                        1436.100          26.200  
G30  20630508.591                        1069.100          32.900    20628156.719                         798.413          28.400  
J02  40613233.938                        1488.300          25.800  
R09  21730369.473                         222.600          28.100  
R20  20078882.974                       -1972.950          27.500  
R21  20052964.117                        2621.100          27.500  
> 2022  2  4 10 11 50.4468292  0 32
C02  35805843.388                          10.000          25.200  
C03  36971297.061                         -10.550          30.900  
C06  37867803.923                       -1155.929          30.100  
C07  38227957.194                        -157.700          27.700  
C08  38435203.720                        1649.300          18.500  
C09  36625197.161                        -887.278          34.100  
C10  37821522.563                        -184.300          24.600  
C12  22599653.443                        1861.250          22.100  
C13  38410176.146                        1521.200          21.400  
C24  25034262.299                        2087.838          35.200  
C26  22465764.033                        1126.168          31.800  
C34  24707775.421                        2807.906          21.500  
C35  23271624.747                       -2392.074          28.800  
E01                                                                  27258124.251                         697.601          32.500    27256216.971                         519.750          20.800  
E04                                                                  28555601.127                        1316.700          23.900  
E13                                                                  24433932.398                        -393.100          38.000    24432021.222                        -293.580          32.300  
E21                                                                  25607500.854                         368.154          30.300  
E26                                                                  24683048.239                        2088.217          33.600    24681134.964                        1559.399          30.900  
E27                                                                  26661747.414                        -244.000          23.300    26659843.732                        -182.490          26.800  
G01  22369870.319                       -1107.500          28.400  
G07  20577997.007                        -344.306          29.200  
G09                                                                  23807789.468                       -2365.900          22.100  
G13  23289518.160                        1961.300          28.100  
G14  22386928.810                          85.842          33.200  
G17  20412577.524                        -610.744          41.300  
G19  21259086.499                        1438.995          28.600  
G30  20630304.195                        1068.326          36.500    20627952.024                         797.545          28.000  
J02  40612926.414                        1487.000          27.800  
J03                                                                  41990927.544                        -486.500          15.500  
R09  21730311.376                         222.450          26.800  
R20  20079257.177                       -1975.400          26.500  
R21  20052462.627                        2619.700          30.400  
> 2022  2  4 10 11 51.4468292  0 31
C02  35805855.519                         -12.100          25.400  
C03  36971290.605                           1.350          33.300  
C06  37868027.707                       -1155.549          29.300  
C07  38227987.312                        -155.300          27.300  
C08  38434880.383                        1649.450          18.700  
C09  36625364.585                        -886.986          34.200  
C10  37821561.675                        -183.250          26.500  
C13  38409880.690                        1518.900          25.100  
C24  25031977.719                        2088.204          31.000  
C26  22465546.523                        1126.373          29.200  
C34  24707235.334                        2809.167          20.300  
C35  23272082.669                       -2392.025          24.900  
E01                                                                  27257986.186                         698.193          31.500    27256085.502                         521.200          23.500  
E04                                                                  28555354.237                        1315.350          24.300  
E13                                                                  24434008.085                        -393.165          40.600    24432098.407                        -293.790          29.500  
E21                                                                  25607425.445                         368.450          29.100  
E26                                                                  24682651.453                        2088.432          36.200    24680737.578                        1559.520          30.400  
E27                                                                  26661800.916                        -243.800          23.700    26659891.538                        -182.044          28.200  
G01  22370059.627                       -1103.150          23.900  
G07  20578074.792                        -344.562          36.600  
G09                                                                  23808394.289                       -2367.050          23.500  
G13  23289131.866                        1962.450          27.700  
G14  22386910.661                          86.339          30.800  
G17  20412694.283                        -610.863          41.700  
G19  21258814.126                        1439.004          28.700  
G30  20630106.771                        1068.268          40.500    20627749.803                         797.563          28.700  
J02  40612652.842                        1487.950          25.700  
J03  41993406.367                        -650.400          25.500    41991054.195                        -485.950          23.400  
R09  21730295.626                         221.350          25.400  
R10  21708261.780                        1977.391          22.000  
R21  20051980.100                        2619.457          30.800  
> 2022  2  4 10 11 52.4468292  0 31
C01  40377061.574                         -37.150          23.900  
C02  35805851.657                          -3.200          25.100  
C03  36971287.642                          -6.800          33.100  
C06  37868251.087                       -1155.864          29.400  
C07  38228016.727                        -159.700          25.200  
C08  38434563.537                        1649.000          18.200  
C09  36625534.002                        -887.301          33.500  
C10  37821593.188                        -184.750          27.300  
C13  38409593.823                        1520.850          25.500  
C24  25031578.131                        2088.211          30.400  
C26  22467208.307                        1126.097          31.900  
C34  24708578.139                        2806.150          23.300  
C35  23274431.878                       -2392.307          31.600  
E01                                                                  27257853.413                         698.097          31.600    27255951.230                         521.432          24.500  
E04                                                                  28555109.941                        1316.400          25.300  
E13                                                                  24434082.469                        -393.700          40.600    24432175.489                        -294.082          27.600  
E21                                                                  25607355.629                         368.800          28.500  
E26                                                                  24682253.963                        2087.944          36.300    24680340.987                        1559.179          30.900  
E27                                                                  26661844.721                        -244.100          24.200    26659936.842                        -182.062          28.800  
G01  22370274.913                       -1110.150          24.200    22367938.630                        -826.750          18.600  
G07  20578139.283                        -345.234          37.400  
G09                                                                  23809000.504                       -2367.300          23.500  
G13  23288778.446                        1957.950          24.400  
G14  22386906.499                          85.200          28.000  
G17  20412808.838                        -611.536          41.800  
G19  21258533.256                        1438.418          30.300  
G30  20629895.752                        1067.708          40.400    20627546.579                         797.295          28.100  
J02  40612374.670                        1489.400          25.700    40610015.603                        1112.550          14.100  
J03  41993532.614                        -650.550          31.100    41991181.642                        -487.100          23.800  
R09  21730250.692                         225.550          23.400  
R21  20051492.073                        2619.100          28.600  
> 2022  2  4 10 11 53.4468291  0 30
C02  35805834.459                         -14.400          24.800  
C06  37868446.142                       -1159.650          25.700  
C07  38228018.416                        -155.700          25.500  
C08  38434217.767                        1646.350          19.000  
C09  36625673.296                        -886.922          32.700  
C10  37821590.380                        -188.500          24.600  
C13  38409276.233                        1518.250          24.700  
C24  25031147.519                        2086.958          33.200  
C26  22466962.667                        1125.082          36.200  
C34  24706124.828                        2809.300          21.800  
C35  23274855.975                       -2394.200          32.000  
E01                                                                  27257699.509                         697.900          27.900    27255789.532                         520.360          24.700  
E04                                                                  28554821.131                        1314.050          21.600  
E13                                                                  24434127.627                        -396.308          38.400    24432218.249                        -294.796          31.900  
E21                                                                  25607258.686                         367.900          25.600    25605351.406                         275.050          17.100  
E26                                                                  24681826.049                        2087.685          33.300    24679913.074                        1557.834          27.500  
E27                                                                  26661859.900                        -245.300          23.000    26659954.420                        -182.300          23.700  
G01  22370475.364                       -1104.750          23.000    22368119.295                        -829.958          28.400  
G07  20578179.045                        -347.643          32.400  
G09                                                                  23809572.398                       -2365.400          23.000  
G13  23288354.430                        1960.200          26.800  
G14  22386848.529                          85.147          30.400  
G17  20412893.570                        -613.715          36.900  
G19  21258215.666                        1437.700          28.300  
G30  20629664.502                        1066.116          38.300    20627313.830                         796.543          34.100  
J02  40612045.088                        1485.950          25.900  
J03  41993617.645                        -650.850          25.700    41991276.266                        -488.750          21.200  
R09  21730124.070                         217.500          24.800  
R20  20080310.412                       -1978.850          20.100  
R21  20050954.735                        2614.950          28.900  
> 2022  2  4 10 11 54.4468291  0 12
C02  35805851.505                         -32.800          24.100  
C08  38433896.947                        1647.200          18.400  
C24  25030744.257                        2089.293          21.700  
C26  22466751.572                        1126.050          27.100  
C35  23273433.418                       -2391.099          25.400  
E01                                                                                                                                  27255656.682                         521.700          22.900  
E13                                                                                                                                  24432291.357                        -292.992          27.800  
E26                                                                  24681433.879                        2087.100          20.400    24679515.208                        1560.600          24.100  
G01                                                                  22368329.708                        -827.800          23.700  
G06                                                                  23393301.235                        2421.900          14.300  
G14  22386828.102                          91.450          23.300  
G30  20629459.703                        1066.600          21.200    20627107.831                         797.850          21.500  
> 2022  2  4 10 11 55.4468291  0  7
C02  35805846.953                         -25.250          23.400  
C03  36971252.659                           2.350          25.100  
C08  38433580.911                        1646.450          18.000  
E13                                                                                                                                  24432360.554                        -284.550          23.300  
G01                                                                  22368542.505                        -820.450          20.900  
G14  22386778.281                          93.400          21.600  
G30  20629229.407                        1083.050          23.600  
> 2022  2  4 10 11 56.4468291  0  6
C02  35805860.909                         -35.050          23.000  
C08  38433263.596                        1647.650          17.500  
E01                                                                                                                                  27255383.381                         540.050          20.700  
E13                                                                                                                                  24432436.567                        -276.100          22.200  
G01                                                                  22368749.528                        -808.250          22.900  
G30  20629056.892                        1085.350          23.300  
> 2022  2  4 10 11 57.4468291  0  5
C02  35805875.255                         -42.950          22.700  
C08  38432943.973                        1648.450          17.100  
G01                                                                  22368955.141                        -811.273          24.700  
G17  20413340.885                        -595.050          17.500  
G30  20628853.889                        1084.350          23.300  
> 2022  2  4 10 11 58.4468291  0  6
E01                                                                                                                                  27255108.205                         537.700          19.500  
E13                                                                                                                                  24432577.802                        -280.200          20.100  
E26                                                                                                                                  24677906.964                        1574.650          17.200  
G01                                                                  22369161.475                        -814.829          24.800  
G14  22386719.120                         104.900          19.200  
G30  20628618.928                        1086.600          21.500  
> 2022  2  4 10 11 59.4468292  0  3
G01                                                                  22369399.823                        -844.400          22.100  
G30                                                                  20626106.979                         809.750          16.600  
R08  22667183.671                       -1346.150          11.500  
> 2022  2  4 10 12  0.4468292  0  3
E13                                                                                                                                  24432760.898                        -310.250          22.200  
E26                                                                                                                                  24677146.913                        1544.100          19.200  
G01                                                                  22369615.284                        -844.394          25.600  
> 2022  2  4 10 12  1.4468292  0  7
C26  22463382.481                        1109.535          14.700  
E01                                                                                                                                  27254744.990                         511.550          19.100  
E13                                                                                                                                  24432838.755                        -306.850          23.700  
E26                                                                                                                                  24676752.297                        1549.800          21.200  
G01                                                                  22369829.546                        -840.454          25.200  
G14  22386740.239                          73.050          20.100  
G30  20628060.548                        1052.300          20.600  
> 2022  2  4 10 12  2.4468291  0  5
C12  22595356.801                        1854.400          13.800  
C26  22463125.842                        1119.553          20.200  
E13                                                                                                                                  24432886.405                        -302.500          24.400  
G01                                                                  22370014.502                        -838.226          25.800  
G30  20627836.587                        1054.300          22.500    20625482.916                         787.650          17.400  
> 2022  2  4 10 12  3.4468291  0  6
E13                                                                                                                                  24432962.253                        -302.183          24.500  
E21                                                                                                                                  25604638.419                         269.450          14.400  
E26                                                                                                                                  24675934.147                        1553.000          20.900  
G01                                                                  22370223.757                        -837.496          24.500  
G14  22386657.181                          78.750          20.600  
G30  20627663.007                        1054.200          21.800    20625280.856                         787.950          23.100  
> 2022  2  4 10 12  4.4468291  0  8
C26  22462702.077                        1120.482          20.600  
E01                                                                                                                                  27254317.011                         517.200          18.600  
E13                                                                                                                                  24433040.041                        -303.750          23.800  
E26                                                                                                                                  24675537.963                        1552.350          21.500  
G01                                                                  22370439.150                        -838.314          24.300  
G14  22386659.121                          78.350          21.700  
G30  20627446.998                        1053.150          23.200    20625078.638                         788.700          23.300  
J02                                                                  40606590.425                        1111.450           8.100  
> 2022  2  4 10 12  5.4468291  0 12
C07  38228387.535                        -155.850          10.700  
C13  38405784.925                        1514.550          10.600  
C26  22462482.644                        1123.269          21.400  
C35  23278499.427                       -2404.512          14.000  
E13                                                                                                                                  24433115.003                        -299.550          24.200  
E26                                                                                                                                  24675144.350                        1555.750          21.900  
E27                                                                                                                                  26660505.813                        -187.650          12.500  
G01  22373020.977                       -1116.600          14.700    22370653.516                        -835.150          23.500  
G07  20578883.932                        -340.500          12.100  
G30  20627253.646                        1060.850          22.000    20624877.191                         790.200          22.700  
J02  40608644.018                        1485.850           9.700  
R21  20045167.616                        2612.450          14.500  
> 2022  2  4 10 12  6.4468291  0  5
E01                                                                                                                                  27254052.644                         520.450          19.800  
E13                                                                  24435098.165                        -404.150          20.700    24433192.385                        -300.858          24.700  
G01                                                                  22370868.802                        -836.548          25.200  
G30  20627040.229                        1058.550          22.200    20624675.766                         790.216          25.000  
R10  21706141.683                        1726.965          11.200  
> 2022  2  4 10 12  7.4468290  0  7
C26  22462024.012                        1124.264          21.300  
C35  23279372.174                       -2396.483          17.900  
E01                                                                                                                                  27253888.973                         524.150          22.000  
E13                                                                  24435146.748                        -399.700          20.600    24433237.070                        -299.100          24.000  
E26                                                                                                                                  24674317.873                        1553.600          19.300  
G01                                                                  22371050.792                        -833.631          25.800  
G30  20626774.329                        1061.650          22.400    20624443.143                         793.328          24.900  
> 2022  2  4 10 12  8.4468290  0  5
C26  22461805.676                        1123.932          21.800  
E13                                                                                                                                  24433315.229                        -299.669          25.500  
G01                                                                  22371262.658                        -835.000          23.200  
G14  22386569.461                          92.900          18.700  
G30  20626585.972                        1061.250          22.300  
> 2022  2  4 10 12  9.4468290  0  9
C26  22463466.457                        1124.550          20.100  
C35  23280297.477                       -2393.829          18.700  
E01                                                                                                                                  27253620.802                         525.250          20.700  
E13                                                                                                                                  24433391.906                        -296.199          24.900  
E26                                                                                                                                  24673528.363                        1558.200          19.300  
G01                                                                  22371476.640                        -831.650          21.600  
G14  22386547.507                          95.950          21.400  
G17  20414713.279                        -617.950          13.300  
G30                                                                  20624036.168                         792.450          18.900  
> 2022  2  4 10 12 10.4468290  0  6
C26  22461376.520                        1130.169          20.700  
C35  23280755.776                       -2391.308          22.200  
E01                                                                                                                                  27253488.211                         529.550          21.700  
E13                                                                  24435373.451                        -394.250          20.300    24433466.471                        -293.682          24.500  
G01                                                                  22371688.810                        -831.900          21.600  
G30  20626199.387                        1069.150          22.000  
> 2022  2  4 10 12 11.4468290  0  6
C26  22463030.392                        1132.700          20.000  
C35  23281217.373                       -2386.929          23.000  
E13                                                                  24435462.106                        -390.350          21.400    24433539.237                        -292.671          26.100  
G01  22374221.973                       -1109.750          17.000    22371898.881                        -830.900          20.800  
G14  22386508.967                          96.950          20.200  
G30  20625974.160                        1073.200          22.100  
> 2022  2  4 10 12 12.4468290  0  7
C26  22460938.855                        1132.159          20.400  
C35  23281672.573                       -2388.588          20.400  
E01                                                                                                                                  27253219.029                         529.900          19.700  
E13                                                                                                                                  24433615.799                        -295.650          23.800  
E26                                                                                                                                  24672330.341                        1561.850          18.900  
G01                                                                  22372110.949                        -830.850          23.300  
G30  20625814.485                        1067.100          22.700    20623425.739                         796.950          18.800  
> 2022  2  4 10 12 13.4468290  0  7
C26  22460722.283                        1128.643          22.000  
C35  23282129.635                       -2394.825          20.700  
E01                                                                                                                                  27253080.403                         527.450          21.100  
E13                                                                                                                                  24433692.124                        -297.318          24.600  
G01                                                                  22372323.380                        -834.100          23.900  
G14  22386475.083                         101.900          19.900  
G30  20625589.519                        1062.650          23.100    20623228.054                         794.400          23.000  
> 2022  2  4 10 12 14.4468290  0  7
C26  22460512.094                        1127.249          20.800  
E13                                                                                                                                  24433764.340                        -299.960          25.200  
E26                                                                                                                                  24671547.426                        1556.750          18.500  
G01                                                                  22372534.999                        -836.721          24.900  
G17  20415319.851                        -614.500          17.000  
G30  20625396.418                        1060.550          24.200    20623024.760                         791.650          21.200  
J03                                                                  41993838.054                        -484.400          13.700  
> 2022  2  4 10 12 15.4468290  0  9
C26  22460292.245                        1125.259          22.000  
C35  23283055.258                       -2396.152          18.100  
E01                                                                                                                                  27252808.055                         524.050          19.200  
E13                                                                                                                                  24433840.986                        -300.090          24.800  
E21                                                                                                                                  25603776.256                         273.150          10.800  
E26                                                                                                                                  24671137.809                        1558.700          21.400  
G01                                                                  22372748.051                        -836.916          24.200  
G14  22386460.258                          91.600          20.500  
G30  20625176.869                        1059.000          24.100    20622821.100                         792.000          22.900  
> 2022  2  4 10 12 16.4468290  0  6
C26  22460078.532                        1125.060          21.200  
E13                                                                                                                                  24433920.470                        -301.025          25.300  
E26                                                                                                                                  24670744.820                        1557.700          20.900  
G01                                                                  22372963.940                        -837.978          25.600  
G14  22386417.127                          83.050          22.300  
G30  20624949.365                        1055.900          22.900    20622622.676                         790.250          23.600  
> 2022  2  4 10 12 17.4468290  0 10
C26  22459860.170                        1125.060          23.400  
C35  23283975.547                       -2397.014          18.800  
E01                                                                                                                                  27252548.960                         523.700          19.200  
E13                                                                                                                                  24433996.803                        -300.861          25.100  
G01                                                                  22373175.780                        -838.150          23.500  
G09                                                                  23824004.892                       -2366.450          10.100  
G14  22386396.028                          86.000          21.500  
G30  20624763.381                        1062.450          23.400    20622419.603                         790.233          24.600  
R09  21729029.114                         233.800          14.400  
R21  20039189.565                        2608.300          14.400  
> 2022  2  4 10 12 18.4468290  0  6
C26  22459642.808                        1125.069          24.500  
E13                                                                                                                                  24434072.639                        -301.106          26.900  
G01                                                                  22373389.220                        -838.315          25.700  
G14  22386399.314                          88.400          23.100  
G30  20624564.007                        1057.200          21.600    20622218.131                         790.149          25.500  
R10  21702348.472                        1719.109          14.600  
> 2022  2  4 10 12 19.4468290  0  8
C26  22459427.673                        1127.997          24.700  
C35  23284891.217                       -2398.606          18.800  
E01                                                                                                                                  27252281.950                         527.350          20.900  
E13                                                                                                                                  24434149.802                        -299.238          27.000  
E26                                                                                                                                  24669557.932                        1557.300          17.900  
G01                                                                  22373601.590                        -836.594          27.100  
G14  22386384.740                          92.800          22.100  
G30  20624368.359                        1057.400          21.700    20622017.986                         792.019          25.200  
> 2022  2  4 10 12 20.4468290  0  6
C26  22459209.096                        1127.204          25.600  
E01                                                                                                                                  27252143.417                         527.750          24.400  
E13                                                                                                                                  24434223.822                        -299.955          26.900  
G01  22376184.873                       -1118.000          16.500    22373813.214                        -837.340          26.000  
G14  22386368.822                          94.100          22.900  
G30  20624145.884                        1055.050          21.700    20621813.798                         791.288          26.000  
> 2022  2  4 10 12 21.4468290  0  7
C26  22460870.769                        1129.650          15.600  
C35  23285815.372                       -2396.749          20.600  
E01                                                                                                                                  27252008.434                         526.250          23.100  
E13                                                                  24436220.963                        -402.750          20.100    24434301.392                        -300.605          25.400  
G01                                                                  22374027.190                        -838.142          25.100  
G14  22386341.465                          89.650          23.600  
G30  20623945.546                        1063.850          22.200    20621614.360                         790.544          25.300  
> 2022  2  4 10 12 22.4468290  0  7
C26  22458774.194                        1127.508          24.500  
C35  23286276.626                       -2397.545          21.700  
E01                                                                                                                                  27251876.399                         527.500          22.400  
E13                                                                                                                                  24434378.912                        -300.172          26.600  
E27                                                                                                                                  26661243.885                        -177.600          16.800  
G01                                                                  22374241.415                        -837.751          25.700  
G30  20623755.351                        1059.450          23.100    20621411.274                         791.098          26.500  
> 2022  2  4 10 12 23.4468290  0  8
C24  25019055.927                        2095.264          14.100  
C26  22458561.520                        1127.534          24.300  
C35  23286738.186                       -2396.704          24.100  
E01                                                                                                                                  27251741.671                         528.150          21.400  
E13                                                                                                                                  24434455.537                        -300.410          26.900  
G01                                                                  22374455.646                        -838.129          25.800  
G14  22386313.637                          97.950          20.800  
G30  20623558.566                        1063.000          22.000    20621207.894                         791.037          25.400  
> 2022  2  4 10 12 24.4468290  0 11
C24  25020537.264                        2088.400          18.300  
C26  22458342.435                        1127.313          24.000  
C35  23287195.132                       -2396.948          21.400  
E01                                                                                                                                  27251609.225                         529.100          22.800  
E13                                                                                                                                  24434531.148                        -301.031          26.300  
E21                                                                                                                                  25603107.759                         281.900          15.600  
E26                                                                                                                                  24667567.620                        1558.750          17.100  
G01                                                                  22374669.460                        -838.746          25.000  
G14  22386300.208                          92.700          21.600  
G17  20416515.662                        -623.600          15.800  
G30  20623365.563                        1058.750          23.600    20621008.594                         790.336          25.000  
> 2022  2  4 10 12 25.4468290  0  7
C26  22458127.914                        1126.848          24.600  
C35  23287657.542                       -2397.213          21.400  
E01                                                                                                                                  27251471.751                         528.600          23.100  
E13                                                                                                                                  24434607.725                        -301.405          24.800  
G01                                                                  22374881.544                        -839.404          24.300  
G14  22386241.879                          99.250          22.400  
G30  20623193.312                        1057.850          21.200    20620805.465                         790.003          25.200  
> 2022  2  4 10 12 26.4468290  0  8
C26  22457911.344                        1127.072          24.300  
C35  23288120.002                       -2397.479          21.000  
E13                                                                                                                                  24434684.052                        -301.352          26.300  
E26                                                                                                                                  24666777.977                        1555.500          20.400  
G01                                                                  22375097.574                        -839.621          25.600  
G14  22386257.349                          92.600          22.000  
G30  20622958.455                        1058.600          21.400    20620604.784                         789.818          24.700  
J03                                                                  41995316.579                        -481.200          12.300  
> 2022  2  4 10 12 27.4468290  0  7
C26  22457692.649                        1128.311          22.800  
C35  23288575.541                       -2395.422          23.100  
E01                                                                                                                                  27251200.772                         529.800          19.600  
E13                                                                                                                                  24434761.852                        -301.610          27.300  
G01                                                                  22375312.979                        -839.731          25.300  
G14  22386232.320                          92.700          22.800  
G30                                                                  20620402.878                         789.714          25.800  
> 2022  2  4 10 12 28.4468290  0 10
C24  25017041.889                        2095.994          15.700  
C26  22457476.839                        1127.117          22.000  
C35  23289036.362                       -2397.744          20.500  
E01                                                                                                                                  27251070.104                         526.550          21.600  
E13                                                                                                                                  24434839.539                        -302.402          24.900  
E26                                                                                                                                  24665982.223                        1557.950          20.800  
E27                                                                                                                                  26661515.344                        -177.450          15.400  
G01                                                                  22375525.873                        -840.995          25.700  
G14  22386232.361                         100.900          22.800  
G30  20622547.934                        1057.200          21.800    20620205.056                         788.733          24.000  
> 2022  2  4 10 12 29.4468290  0 10
C24  25018524.634                        2094.400          18.200  
C26  22457262.758                        1126.396          24.500  
C35  23289497.115                       -2398.341          22.600  
E13                                                                                                                                  24434915.958                        -302.609          25.400  
G01                                                                  22375740.795                        -841.111          24.600  
G09                                                                  23831214.591                       -2362.950          14.100  
G14  22386164.879                          93.350          23.000  
G30  20622361.734                        1056.350          23.000    20620003.267                         788.518          25.100  
R09  21728380.953                         223.350          12.100  
R21  20033482.707                        2605.000          14.800  
> 2022  2  4 10 12 30.4468289  0  7
C26  22457014.475                        1127.130          24.500  
C35  23289931.159                       -2397.346          20.400  
E01                                                                                                                                  27250768.428                         529.800          21.600  
E13                                                                                                                                  24434962.670                        -302.239          25.700  
G01                                                                  22375923.613                        -840.862          25.400  
G30  20622149.726                        1057.450          24.200    20619770.273                         788.750          23.800  
R10  21698282.934                        1738.073          15.000  
> 2022  2  4 10 12 31.4468289  0  7
C26  22456794.846                        1128.311          20.200  
E01                                                                                                                                  27250632.141                         532.650          23.700  
E13                                                                                                                                  24435039.536                        -300.873          24.600  
E26                                                                                                                                  24664766.899                        1556.800          17.600  
G01                                                                  22376139.882                        -839.726          26.400  
G14  22386147.854                          98.550          20.700  
G30  20621910.610                        1055.950          21.300    20619568.331                         789.900          23.000  
> 2022  2  4 10 12 32.4468289  0  7
C26  22456579.567                        1130.413          24.000  
C35  23290857.009                       -2395.024          18.900  
E01                                                                                                                                  27250497.207                         532.900          21.800  
E13                                                                                                                                  24435116.854                        -300.256          25.800  
E27                                                                                                                                  26661668.245                        -175.150          17.400  
G01  22378695.585                       -1124.150          14.200    22376353.007                        -838.943          25.500  
G30  20621762.485                        1058.900          21.800    20619369.541                         791.850          22.500  
> 2022  2  4 10 12 33.4468289  0  7
C26  22456366.688                        1131.496          22.600  
