     3.03           OBSERVATION DATA    M: Mixed            RINEX VERSION / TYPE
Geo++ RINEX Logger  Geo++               20220223 053818 UTC PGM / RUN BY / DATE
************************************************************COMMENT
This file was generated by the Geo++ RINEX Logger App       COMMENT
for Android devices (Version 2.1.6). If you encounter       COMMENT
any issues, please send an email to android@geopp.de        COMMENT
Filtering Mode: BEST                                        COMMENT
************************************************************COMMENT
geo                                                         MARKER NAME
GEODETIC                                                    MARKER TYPE
Geo++               Geo++                                   OBSERVER / AGENCY
unknown             OnePlus             IN2011              REC # / TYPE / VERS
unknown             IN2011                                  ANT # / TYPE
  1501556.3450  6066651.3257  1272403.6013                  APPROX POSITION XYZ
        0.0000        0.0000        0.0000                  ANTENNA: DELTA H/E/N
G    8 C1C L1C D1C S1C C5Q L5Q D5Q S5Q                      SYS / # / OBS TYPES
R    4 C1C L1C D1C S1C                                      SYS / # / OBS TYPES
E   12 C1B L1B D1B S1B C1C L1C D1C S1C C5Q L5Q D5Q S5Q      SYS / # / OBS TYPES
C    4 C2I L2I D2I S2I                                      SYS / # / OBS TYPES
J    8 C1C L1C D1C S1C C5Q L5Q D5Q S5Q                      SYS / # / OBS TYPES
  2022     2    23     5    38   36.4441695     GPS         TIME OF FIRST OBS
 24 R01  1 R02 -4 R03  5 R04  6 R05  1 R06 -4 R07  5 R08  6 GLONASS SLOT / FRQ #
    R09 -2 R10 -5 R11  0 R12 -1 R13 -2 R14 -7 R15  0 R16 -1 GLONASS SLOT / FRQ #
    R17  4 R18 -3 R19  3 R20  2 R21  4 R22 -3 R23  3 R24  2 GLONASS SLOT / FRQ #
G L1C                                                       SYS / PHASE SHIFT
G L5Q -0.25000                                              SYS / PHASE SHIFT
R L1C                                                       SYS / PHASE SHIFT
E L1B                                                       SYS / PHASE SHIFT
E L1C +0.50000                                              SYS / PHASE SHIFT
E L5Q -0.25000                                              SYS / PHASE SHIFT
C L2I                                                       SYS / PHASE SHIFT
J L1C                                                       SYS / PHASE SHIFT
J L5Q -0.25000                                              SYS / PHASE SHIFT
 C1C    0.000 C1P    0.000 C2C    0.000 C2P    0.000        GLONASS COD/PHS/BIS
                                                            END OF HEADER
> 2022  2 23  5 38 36.4441695  2  0
> 2022  2 23  5 38 36.4441695  0 14
C07  36985817.659                        -238.800          26.100  
C09  36787321.475                        1292.700          27.900  
C10  36566586.386                        -126.305          30.100  
C25  24322660.980                         633.500          22.200  
E01                                                                  25660589.151                       -1437.350          19.000  
E04                                                                  23732923.646                        1327.361          29.900    23731011.570                         991.391          27.900  
E09                                                                  25328483.863                        3076.600          20.800  
E19                                                                  24858346.033                       -1428.600          26.000  
G04  20465686.208                          35.600          20.500    20463307.954                          27.110          24.300  
G07  23349942.679                        1632.150          22.300  
G08  20954880.046                         -74.982          32.800  
G09  20774027.847                        2156.540          30.100    20771676.575                        1610.574          28.800  
J03  40723712.168                          18.850          21.300  
R21  22850996.592                        1044.150          22.700  
> 2022  2 23  5 38 37.4441698  0 13
C07  36985956.167                        -238.200          25.300  
C09  36787169.484                        1291.450          25.800  
C10  36566696.114                        -127.139          29.900  
C24  24251021.978                        -452.100          21.800  
C25  24322604.622                         636.550          23.000  
C33  22550918.135                         258.450          20.400  
E04                                                                  23732763.861                        1326.144          31.900    23730849.686                         990.011          28.100  
E19                                                                  24858709.085                       -1428.300          23.900  
G04  20465763.558                          31.800          23.000    20463390.401                          25.664          25.200  
G07  23349700.450                        1634.300          22.200  
G08  20954982.279                         -76.397          32.200  
G09  20773717.566                        2155.460          32.200    20771354.901                        1609.568          31.200  
G30  24700670.193                        1827.550          19.100  
> 2022  2 23  5 38 38.4441700  0 19
C06  37081315.811                         922.950          18.300  
C07  36986057.957                        -239.750          25.100  
C09  36786976.878                        1291.350          28.300  
C10  36566782.615                        -127.005          31.000  
C12  23460558.465                        1431.800          18.300  
C24  24251160.043                        -453.300          23.700  
C34  23610284.712                        2389.185          22.400  
E01                                                                  25661304.920                       -1436.300          20.800  
E04                                                                  23732571.255                        1326.131          33.600    23730658.579                         990.362          27.400  
E09                                                                  25327475.226                        3076.550          19.700  
E19                                                                  24859044.414                       -1428.600          25.700  
G04  20465802.991                          33.800          24.800    20463445.423                          25.725          25.700  
G07  23349484.160                        1633.950          24.900  
G08  20955061.585                         -76.646          34.200  
G09  20773356.776                        2155.246          34.200    20771004.305                        1609.592          31.100  
J03  40723883.214                          21.950          21.700  
R02  22042837.833                        3945.600          18.900  
R08  21146728.796                       -3208.650          17.200  
R21  22850756.023                        1046.550          21.500  
> 2022  2 23  5 38 39.4441703  0 17
C07  36986218.126                        -240.950          22.500  
C09  36786821.366                        1287.050          29.000  
C10  36566896.916                        -131.166          30.800  
C14  22153112.971                       -1199.450          17.900  
C24  24251335.202                        -451.950          25.800  
C33  22550977.136                         255.750          23.200  
E04                                                                  23732412.445                        1321.484          33.400    23730494.673                         986.660          26.200  
E09                                                                  25326990.242                        3072.050          21.200  
E19                                                                  24859401.247                       -1434.550          25.700  
E31                                                                  24568100.410                          -9.500          19.500  
G04                                                                  20463530.944                          21.962          26.500  
G07  23349256.099                        1630.300          24.700  
G08  20955168.091                         -81.518          33.700  
G09  20773044.773                        2150.545          34.500    20770684.806                        1606.033          29.600  
J02  42866348.896                         775.300          16.200    42863994.027                         575.850          23.500  
J03  40723970.534                          18.300          22.600  
R21  22850673.360                        1046.250          22.600  
> 2022  2 23  5 38 40.4441706  0 14
C09  36786674.961                        1283.200          28.700  
C10  36567013.730                        -135.383          30.900  
C24  24251518.270                        -459.700          24.300  
C33  22551012.705                         243.700          25.100  
E04                                                                  23732248.952                        1317.018          32.600    23730330.580                         983.501          24.800  
E09                                                                  25326500.575                        3068.300          20.800  
E19                                                                  24859762.391                       -1437.900          26.100  
G04  20465965.453                          24.650          19.900    20463614.781                          18.577          25.500  
G07  23349014.060                        1625.050          26.400  
G08  20955274.712                         -86.271          33.600  
G09  20772722.690                        2146.031          34.200    20770364.223                        1602.536          28.000  
G30  24699856.392                        1826.500          18.000  
J03  40724026.490                          20.550          21.300  
R21  22850565.929                        1038.750          23.000  
> 2022  2 23  5 38 41.4441709  0 17
C06  37081061.047                         918.150          19.000  
C07  36986464.835                        -252.850          21.200  
C09  36786501.167                        1279.550          29.000  
C10  36567130.434                        -139.808          29.900  
C24  24251692.834                        -459.400          23.900  
C33  22551056.560                         245.850          23.900  
E04                                                                  23732088.649                        1312.219          32.000    23730173.274                         979.844          24.700  
E09                                                                  25325980.520                        3063.050          21.400  
E19                                                                  24860135.118                       -1442.750          24.200  
E31                                                                  24568287.760                         -17.300          18.800  
G04                                                                  20463701.806                          14.848          25.300  
G07  23348795.597                        1620.900          25.300  
G08  20955378.525                         -91.347          33.200  
G09  20772403.196                        2141.088          33.600    20770047.127                        1598.892          28.900  
J02                                                                  42863881.284                         570.350          22.100  
J03  40724087.732                           6.250          22.800  
R02  22040817.291                        3937.400          19.300  
> 2022  2 23  5 38 42.4441712  0 14
C09  36786352.874                        1278.650          28.600  
C10  36567250.156                        -139.821          30.300  
C24  24251872.515                        -461.600          25.200  
C33  22551091.741                         236.900          23.100  
E01                                                                  25662739.891                       -1446.300          17.600  
E04                                                                  23731929.863                        1311.573          32.200    23730014.190                         979.383          24.900  
E19                                                                  24860498.572                       -1443.150          26.000  
G04  20466159.010                          14.950          20.800    20463787.351                          14.195          25.600  
G07  23348587.946                        1617.800          25.900  
G08  20955480.559                         -92.025          33.200  
G09  20772091.217                        2140.524          33.700    20769730.052                        1598.385          28.500  
G14  23457696.511                        2392.100          15.500  
J03  40724236.834                          12.200          22.500  
R21  22850334.080                        1030.400          21.300  
> 2022  2 23  5 38 43.4441715  0 16
C07  36986763.842                        -255.450          21.200  
C09  36786194.594                        1279.800          28.900  
C10  36567359.890                        -138.723          30.600  
C24  24252058.096                        -457.500          25.000  
C33  22551139.717                         245.700          23.600  
E04                                                                  23731770.084                        1312.643          33.200    23729852.911                         980.126          24.300  
E09                                                                  25325015.902                        3063.950          20.800  
E19                                                                  24860867.026                       -1442.800          25.200  
E31                                                                  24568475.844                         -18.600          18.800  
G04  20466224.074                          22.250          21.500    20463874.301                          14.949          25.800  
G07  23348387.694                        1621.750          26.100  
G08  20955591.792                         -91.483          34.100  
G09  20771767.451                        2141.290          34.800    20769411.981                        1599.101          28.400  
G30  24699094.519                        1825.350          17.800  
J03  40724294.104                          10.900          21.400  
R02  22039480.032                        3928.700          20.400  
> 2022  2 23  5 38 44.4441717  0 12
C09  36786013.295                        1277.391          29.800  
C10  36567449.004                        -141.384          31.200  
C24  24252203.871                        -460.750          25.400  
C33  22551158.980                         238.250          26.300  
E01                                                                  25663450.785                       -1447.350          18.900  
E04                                                                  23731580.991                        1309.603          33.000    23729665.617                         977.899          27.000  
E19                                                                  24861195.075                       -1445.350          25.100  
G04  20466295.801                          18.800          23.000    20463929.539                          12.384          26.700  
G07  23348142.240                        1616.250          25.800  
G08  20955668.915                         -94.652          34.000  
G09  20771425.464                        2138.231          35.100    20769065.497                        1596.797          29.400  
R21  22850110.820                        1031.600          20.100  
> 2022  2 23  5 38 45.4441720  0 16
C09  36785863.666                        1276.900          28.800  
C10  36567567.989                        -141.973          31.000  
C24  24252381.616                        -462.950          25.600  
C33  22551206.914                         243.250          24.200  
C34  23609542.944                        2394.650          10.500  
E04                                                                  23731422.368                        1308.635          32.800    23729504.596                         977.240          24.700  
E19                                                                  24861551.196                       -1446.650          25.900  
E26                                                                  28438666.111                        1333.150           7.400  
E31                                                                  24568636.277                         -23.300          19.000  
G04                                                                  20464017.945                          11.528          24.500  
G07  23347921.860                        1619.500          26.800  
G08  20955776.808                         -95.896          34.100  
G09  20771112.448                        2137.189          34.700    20768748.884                        1595.999          28.900  
J03  40724430.853                           6.600          21.500  
R01  19348018.635                        -105.300          11.300  
R12  21742820.449                        -323.650          16.300  
> 2022  2 23  5 38 46.4441723  0 18
C09  36785703.864                        1279.000          28.600  
C10  36567684.895                        -140.061          30.100  
C16  37111244.297                         962.500          12.700  
C24  24252557.880                        -463.950          24.600  
C33  22551242.876                         237.800          23.200  
E01                                                                  25664175.338                       -1451.250          19.700  
E04                                                                  23731262.266                        1310.138          32.000    23729346.592                         978.276          25.700  
E09                                                                  25323480.696                        3061.100          20.000  
E19                                                                  24861928.022                       -1444.100          24.400  
G03  23345924.629                       -2284.700          14.800  
G04  20466465.437                          17.700          20.400    20464103.972                          12.480          25.700  
G07  23347703.298                        1614.200          25.200  
G08  20955882.921                         -94.567          32.900  
G09  20770793.156                        2138.704          34.100    20768430.791                        1596.893          29.000  
G30  24698271.919                        1818.200          18.700  
J03  40724522.277                          11.950          21.400  
R02  22037522.717                        3927.100          18.900  
R21  22849870.640                        1029.150          21.500  
> 2022  2 23  5 38 47.4441726  0 12
C07  36987262.635                        -253.300          18.600  
C09  36785548.179                        1281.200          27.600  
C10  36567797.225                        -138.134          29.300  
E04                                                                  23731103.883                        1311.984          30.800    23729185.810                         979.657          25.200  
E09                                                                  25322982.648                        3063.500          21.200  
E19                                                                  24862285.582                       -1443.950          22.500  
E31                                                                  24568807.353                         -20.650          19.500  
G04  20466578.666                          20.350          22.100    20464190.520                          13.919          25.700  
G07  23347479.560                        1622.150          24.200  
G08  20955993.751                         -93.183          31.400  
G09  20770477.082                        2140.323          32.100    20768116.516                        1598.396          27.500  
J02                                                                  42863516.489                         573.850          22.100  
> 2022  2 23  5 38 48.4441728  0 17
C09  36785356.179                        1274.800          29.200  
C10  36567886.730                        -142.322          30.900  
C24  24252891.924                        -463.950          23.800  
C33  22551304.708                         236.600          23.300  
E01                                                                  25664877.826                       -1449.700          18.100  
E04                                                                  23730912.183                        1307.598          33.500    23728996.809                         976.322          26.100  
E09                                                                  25322474.667                        3060.600          21.600  
E19                                                                  24862620.917                       -1447.400          26.100  
E31                                                                  24568886.665                         -24.900          22.500  
G04                                                                  20464246.748                          10.230          27.600  
G07  23347232.399                        1616.850          27.300  
G08  20956068.867                         -97.830          34.200  
G09  20770123.494                        2135.782          35.400    20767767.725                        1594.917          29.900  
J02  42865779.490                         763.800          15.800    42863429.716                         569.750          22.600  
J03  40724663.254                           6.500          21.800  
R02  22036234.284                        3924.700          20.600  
R08  21153612.011                       -3217.450          16.500  
> 2022  2 23  5 38 49.4441731  0 19
C06  37080328.235                         912.800          16.700  
C09  36785204.745                        1270.950          29.000  
C10  36568005.109                        -145.792          30.600  
C24  24253057.670                        -466.150          25.200  
C25  24322134.049                         626.150          13.800  
C33  22551371.223                         232.300          23.900  
E01                                                                  25665239.637                       -1453.550          21.000  
E04                                                                  23730757.151                        1303.479          33.600    23728839.678                         973.565          27.300  
E09                                                                  25321985.067                        3057.300          22.600  
E19                                                                  24862991.422                       -1451.450          26.100  
E31                                                                  24568967.570                         -26.850          20.400  
G04  20466668.433                           9.600          21.000    20464336.047                           7.175          27.900  
G07  23347013.511                        1612.650          27.200  
G08  20956179.151                        -102.086          34.500  
G09  20769806.275                        2131.745          35.100    20767451.105                        1591.907          30.100  
G30  24697497.291                        1820.700          19.000  
J02                                                                  42863377.514                         567.599          24.200  
J03  40724784.031                          -1.650          22.000  
R21  22849543.602                        1022.650          18.200  
> 2022  2 23  5 38 50.4441734  0 18
C07  36987664.815                        -254.750          19.500  
C09  36785053.680                        1268.114          29.300  
C10  36568122.958                        -150.585          30.600  
C12  23458335.175                        1410.950          15.500  
C14  22156620.134                       -1220.650          16.600  
C24  24253242.372                        -470.050          26.000  
C33  22551386.543                         234.650          25.400  
E04                                                                  23730600.090                        1298.410          33.300    23728683.217                         969.578          26.100  
E09                                                                  25321510.825                        3051.700          21.800  
E19                                                                  24863356.899                       -1456.900          25.700  
E31                                                                  24569072.228                         -32.950          22.400  
G04  20466770.692                          -0.050          22.400    20464423.017                           3.208          26.400  
G07  23346789.896                        1608.450          27.200  
G08  20956291.904                        -107.470          34.300  
G09  20769492.122                        2126.480          35.700    20767136.953                        1588.024          29.400  
J02                                                                  42863324.481                         565.200          22.800  
J03  40724847.317                          -4.100          23.600  
R02  22034937.673                        3924.750          20.600  
> 2022  2 23  5 38 51.4441737  0 19
C07  36987807.736                        -267.500          23.300  
C09  36784896.509                        1267.442          29.700  
C10  36568241.596                        -151.121          30.900  
C24  24253423.367                        -474.950          25.400  
C33  22551434.130                         226.450          25.300  
C34  23605466.638                        2363.907          21.600  
E01                                                                  25665974.978                       -1459.300          19.300  
E04                                                                  23730438.122                        1297.278          32.400    23728526.346                         968.869          27.600  
E09                                                                  25321006.495                        3049.550          23.800  
E19                                                                  24863727.063                       -1457.900          26.600  
G04  20466854.854                           3.950          21.800    20464514.074                           2.319          26.800  
G07  23346568.270                        1611.950          26.400  
G08  20956403.646                        -108.790          34.500  
G09  20769180.558                        2125.344          35.100    20766822.391                        1587.152          30.500  
G30  24697009.179                        1808.750          20.500  
J02                                                                  42863268.939                         563.613          24.900  
J03  40724939.574                           0.300          23.700  
R02  22034303.831                        3916.450          22.400  
R21  22849388.260                        1014.200          19.900  
> 2022  2 23  5 38 52.4441739  0 11
C09  36784717.718                        1270.550          27.700  
C10  36568331.719                        -147.578          29.300  
C24  24253577.945                        -464.750          22.400  
C33  22551472.988                         227.400          22.300  
E04                                                                  23730258.432                        1300.632          30.000    23728337.661                         971.900          23.300  
E19                                                                  24864065.414                       -1454.200          23.000  
G04  20466919.794                           7.950          21.100    20464572.419                           4.437          24.400  
G07  23346301.340                        1610.450          22.600  
G08  20956477.880                        -105.746          31.900  
G09  20768832.384                        2128.538          32.600    20766476.315                        1589.541          27.800  
J03  40725013.208                          -0.750          22.100  
> 2022  2 23  5 38 53.4441742  0 14
C07  36988039.403                        -261.400          22.800  
C09  36784560.968                        1272.750          27.500  
C10  36568450.479                        -144.360          30.000  
C24  24253757.263                        -465.750          25.000  
C33  22551496.414                         232.500          25.100  
E01                                                                  25666680.317                       -1454.150          19.300  
E04                                                                  23730099.284                        1303.733          30.900  
E09                                                                  25319990.425                        3056.350          20.900  
E19                                                                  24864436.299                       -1450.700          25.400  
G04  20467027.462                          10.350          21.400  
G07  23346093.326                        1615.700          25.800  
G08  20956585.248                        -102.958          32.600  
G09  20768521.542                        2131.515          33.600    20766162.475                        1592.800          23.800  
J03  40725126.572                           6.100          21.500  
> 2022  2 23  5 38 54.4441745  0 10
C07  36988177.616                        -258.300          22.800  
C09  36784405.684                        1276.050          26.100  
C10  36568562.909                        -145.900          28.300  
E04                                                                  23729940.103                        1300.960          31.200  
E09                                                                  25319495.177                        3055.600          20.500  
E19                                                                  24864793.960                       -1453.300          21.400  
E31                                                                  24569439.330                         -29.550          17.100  
G07  23345841.509                        1611.250          21.100  
G08  20956692.582                        -106.148          29.700  
G09  20768206.169                        2128.661          30.300    20765845.303                        1589.674          24.500  
> 2022  2 23  5 38 55.4441748  0 10
C09  36784252.419                        1267.900          26.600  
C10  36568685.453                        -152.450          27.800  
C24  24254113.353                        -471.300          21.200  
C33  22551585.989                         224.900          20.300  
E01                                                                  25667421.640                       -1458.700          19.300  
E04                                                                  23729779.942                        1296.712          33.000  
E19                                                                  24865160.234                       -1458.750          22.900  
G08  20956809.130                        -110.380          30.900  
G09  20767883.520                        2124.386          32.300    20765531.948                        1586.309          26.200  
R12  21744321.946                        -338.200          16.500  
> 2022  2 23  5 38 56.4441750  0 14
C07  36988438.533                        -266.900          25.100  
C09  36784063.119                        1265.400          27.100  
C10  36568785.153                        -151.900          28.100  
C14  22158508.480                       -1225.050          17.500  
C33  22551601.447                         223.950          23.500  
E04                                                                  23729595.739                        1294.924          30.800  
E09                                                                  25318493.368                        3049.700          20.200  
E19                                                                  24865504.565                       -1459.400          23.400  
G07  23345432.090                        1609.750          21.500  
G08  20956893.241                        -112.528          33.300  
G09  20767543.725                        2122.595          31.100    20765189.155                        1585.064          25.000  
G30  24695695.522                        1814.400          17.000  
J03  40725341.629                           0.900          20.200  
R21  22848800.101                        1017.700          17.100  
> 2022  2 23  5 38 57.4441753  0 19
C06  37079610.242                         899.400          17.800  
C07  36988573.765                        -269.350          25.100  
C09  36783915.647                        1268.850          29.200  
C10  36568895.503                        -151.291          29.500  
C24  24254453.513                        -469.400          22.700  
E01                                                                  25668135.642                       -1459.150          20.100  
E04                                                                  23729438.973                        1295.319          31.100    23727521.501                         968.650          23.900  
E09                                                                  25318009.829                        3049.850          23.400  
E19                                                                  24865868.240                       -1459.250          24.800  
E26                                                                  28436715.094                        1309.700          12.500  
E31                                                                  24569681.386                         -34.250          21.400  
G04  20467357.366                           2.400          19.500    20464987.206                           0.005          27.100  
G07  23345203.674                        1610.950          24.800  
G08  20957004.190                        -112.301          36.200  
G09  20767228.369                        2122.864          33.800    20764873.499                        1585.254          27.600  
J02  42865239.235                         755.350          17.000    42862878.969                         564.063          24.600  
J03  40725462.171                          -2.900          23.600  
R02  22030342.134                        3919.550          18.100  
R21  22848745.865                        1006.900          23.900  
> 2022  2 23  5 38 58.4441756  0 15
C07  36988725.717                        -267.450          26.000  
C09  36783762.710                        1261.600          28.400  
C10  36569010.580                        -155.510          29.500  
C16  37110061.618                         942.750          16.100  
C24  24254631.547                        -477.350          22.300  
C33  22551727.343                         221.450          21.900  
E04                                                                  23729280.340                        1291.058          29.800  
E09                                                                  25317521.124                        3046.600          22.500  
E19                                                                  24866239.340                       -1463.700          23.700  
G03  23352193.292                       -2304.000          15.300  
G04  20467431.971                          -7.450          23.200  
G07  23344997.074                        1608.600          23.900  
G08  20957120.766                        -116.998          33.600  
G09  20766923.137                        2118.412          32.300    20764558.074                        1581.800          23.100  
R21  22848646.590                        1005.950          23.400  
> 2022  2 23  5 38 59.4441758  0 14
C07  36988826.072                        -270.600          24.800  
C09  36783574.665                        1263.950          27.500  
C10  36569100.742                        -153.883          29.700  
C24  24254787.963                        -474.250          23.400  
C33  22551725.169                         223.300          24.600  
E01                                                                  25668829.843                       -1462.750          20.600  
E04                                                                  23729096.792                        1292.250          30.100  
E19                                                                  24866571.734                       -1461.200          24.600  
E31                                                                  24569850.350                         -35.500          19.700  
G07  23344758.963                        1608.750          27.400  
G08  20957193.840                        -116.149          31.000  
G09  20766561.512                        2120.650          28.100    20764217.435                        1582.800          22.900  
G30  24694879.694                        1808.100          18.700  
R08  21161193.914                       -3237.300          16.200  
> 2022  2 23  5 39  0.4441761  0 13
C07  36988973.297                        -260.650          25.600  
C09  36783422.996                        1266.050          27.900  
C10  36569222.184                        -152.284          30.000  
C24  24254957.672                        -469.650          24.500  
C33  22551765.068                         222.900          25.500  
E01                                                                  25669206.408                       -1460.350          21.600  
E04                                                                  23728938.827                        1293.537          33.900    23727026.451                         965.700          24.600  
E19                                                                  24866936.308                       -1460.950          24.000  
E31                                                                                                                                  24568033.334                         -26.100          25.100  
G07  23344552.133                        1607.650          22.000  
G08  20957306.589                        -115.107          31.100  
G09  20766260.247                        2120.637          31.500    20763904.178                        1583.741          27.500  
J03  40725650.349                           0.300          21.600  
> 2022  2 23  5 39  1.4441764  0 13
C07  36989113.643                        -272.050          23.000  
C09  36783273.143                        1264.400          27.600  
C10  36569337.048                        -154.900          28.100  
C12  23456259.942                        1402.850          16.800  
C14  22160130.634                       -1238.100          18.500  
C24  24255134.893                        -475.200          22.400  
C25  24321740.683                         611.500          15.900  
C33  22551841.258                         218.950          22.700  
E04                                                                  23728781.779                        1289.240          31.900    23726869.703                         962.427          25.500  
E31                                                                                                                                  24568133.508                         -29.466          26.600  
G08  20957428.347                        -119.563          29.600  
G09  20765952.703                        2116.277          30.900    20763591.238                        1580.251          28.500  
G27  22815181.951                       -1881.750          18.400  
> 2022  2 23  5 39  2.4441766  0 10
C07  36989232.153                        -268.650          23.800  
C09  36783089.763                        1257.700          26.900  
C10  36569430.676                        -161.750          29.000  
C24  24255290.877                        -477.700          22.400  
E01                                                                  25669899.664                       -1465.900          21.800  
E04                                                                  23728597.799                        1285.070          32.000    23726681.826                         959.607          24.800  
E19                                                                  24867655.646                       -1467.200          19.700  
E31                                                                  24570110.432                         -38.200          16.700    24568199.256                         -32.177          26.000  
G08  20957506.986                        -123.891          29.200  
G09  20765598.741                        2112.229          30.400    20763248.668                        1577.367          28.100  
> 2022  2 23  5 39  3.4441769  0 13
C07  36989373.440                        -277.150          25.600  
C09  36782939.052                        1256.450          28.600  
C10  36569552.776                        -163.019          29.900  
C24  24255472.337                        -480.400          24.700  
C33  22551881.608                         212.350          22.900  
E01                                                                  25670279.586                       -1469.150          24.700  
E04                                                                  23728442.892                        1281.754          33.700    23726529.616                         957.244          25.800  
E19                                                                  24868010.985                       -1471.250          22.400  
E31                                                                                                                                  24568299.171                         -34.406          26.700  
G07  23343838.248                        1604.000          19.200  
G08  20957624.589                        -127.472          31.300  
G09  20765294.237                        2108.700          32.400    20762936.069                        1574.861          29.400  
J02                                                                  42862506.755                         556.050          23.700  
> 2022  2 23  5 39  4.4441772  0 17
C07  36989521.922                        -281.550          23.700  
C09  36782787.142                        1252.100          25.100  
C10  36569673.977                        -165.667          30.100  
C12  23455703.790                        1380.450          19.600  
C24  24255650.798                        -485.200          24.600  
C33  22551935.356                         205.250          24.500  
E01                                                                  25670647.816                       -1472.150          21.600  
E04                                                                  23728292.480                        1278.806          32.000    23726375.308                         955.175          26.400  
E19                                                                  24868387.609                       -1474.300          23.600  
E31                                                                                                                                  24568398.487                         -36.486          27.600  
G03  23355316.187                       -2312.150          16.100  
G07  23343659.656                        1598.500          27.800  
G08  20957729.901                        -130.886          29.300  
G09  20764983.437                        2105.601          31.100    20762625.569                        1572.459          31.000  
J02                                                                  42862451.977                         554.250          23.500  
J03  40725996.615                         -11.100          19.300  
R12  21745599.770                        -344.450          16.000  
> 2022  2 23  5 39  5.4441774  0 16
C02  35920518.251                         408.250          22.600  
C09  36782605.341                        1248.700          27.500  
C10  36569766.186                        -170.579          29.500  
C25  24321556.146                         595.050          20.400  
C33  22551948.719                         206.500          23.900  
E04                                                                  23728108.281                        1273.788          31.200    23726191.708                         951.107          28.700  
E19                                                                  24868722.650                       -1480.050          24.300  
E26                                                                  28435379.005                        1286.800          17.600  
E31                                                                  24570367.097                         -50.050          17.600    24568467.013                         -40.154          26.500  
G04  20468010.100                         -16.100          17.100  
G07  23343393.913                        1595.050          26.800  
G08  20957821.211                        -135.770          32.500  
G09  20764641.247                        2100.540          32.700    20762285.477                        1568.680          30.600  
J02                                                                  42862370.907                         551.153          25.800  
J03  40726043.855                         -23.350          22.700  
R21  22847830.385                         991.400          20.000  
> 2022  2 23  5 39  6.4441777  0 17
C07  36989770.821                        -284.050          22.400  
C09  36782457.141                        1247.450          29.100  
C10  36569889.899                        -170.350          28.200  
C33  22552026.564                         199.700          23.400  
E04                                                                  23727957.384                        1271.986          30.000    23726040.810                         949.889          26.900  
E09                                                                  25313520.121                        3032.200          15.400  
E19                                                                  24869100.886                       -1482.400          24.600  
E26                                                                  28435189.734                        1285.200          24.800  
E31                                                                                                                                  24568569.140                         -41.359          26.400  
G04  20468100.835                         -27.500          23.400    20465724.680                         -18.670          26.800  
G07  23343188.154                        1595.000          25.200  
G08  20957934.730                        -137.972          32.800  
G09  20764331.759                        2098.772          31.200    20761975.990                        1567.359          29.100  
J02                                                                  42862320.140                         550.450          27.200  
J03  40726158.874                         -25.300          24.000  
R08  21165961.317                       -3252.800          17.400  
R21  22847773.322                         986.900          28.300  
> 2022  2 23  5 39  7.4441779  0 16
C07  36989889.192                        -277.200          22.900  
C09  36782279.017                        1252.046          30.100  
C10  36569982.187                        -169.550          27.900  
C25  24321496.637                         590.700          21.100  
C33  22552021.120                         202.900          22.600  
E04                                                                  23727772.664                        1276.850          28.600    23725856.690                         953.744          27.000  
E19                                                                  24869442.003                       -1477.050          22.700  
E26                                                                  28435007.413                        1291.400          26.600    28433102.532                         964.800          26.200  
E31                                                                                                                                  24568639.244                         -37.367          24.700  
G04  20468178.734                         -16.600          22.500    20465791.786                         -15.126          25.600  
G07  23342938.379                        1600.400          25.500  
G08  20958020.723                        -133.232          32.900    20955665.854                         -99.000          24.100  
G09  20763989.348                        2103.820          30.700    20761636.277                        1570.450          28.500  
G30  24692765.313                        1791.600          16.700  
J02                                                                  42862240.647                         554.773          27.400  
R21  22847620.680                         991.100          26.000  
> 2022  2 23  5 39  8.4441782  0 17
C09  36782126.342                        1248.122          30.600  
C10  36570106.520                        -170.846          29.700  
C25  24321462.380                         592.850          23.500  
C33  22552078.599                         201.650          21.800  
E04                                                                  23727625.684                        1272.263          29.700    23725704.614                         949.935          27.700  
E09                                                                  25312516.288                        3032.700          20.500  
E19                                                                  24869810.666                       -1482.700          23.900  
E26                                                                  28434856.836                        1286.363          30.000    28432950.456                         960.378          28.000  
E31                                                                                                                                  24568737.195                         -40.926          25.500  
G04  20468248.205                         -22.200          23.000    20465885.240                         -18.869          24.200  
G07  23342715.252                        1593.900          24.800  
G08  20958124.670                        -138.270          34.500  
G09  20763680.781                        2098.834          31.900    20761325.012                        1567.153          28.600  
G27                                                                  22815919.346                       -1423.895          25.100  
J02  42864558.562                         739.650          16.800    42862187.203                         551.192          29.600  
J03  40726320.633                         -24.350          20.500  
R21  22847506.678                         985.000          25.700  
> 2022  2 23  5 39  9.4441785  0 19
C07  36990163.947                        -287.050          22.700  
C09  36781973.075                        1242.572          31.600  
C10  36570232.959                        -176.459          30.000  
C12  23454776.101                        1375.400          19.300  
C33  22552127.392                         194.000          24.500  
E04                                                                  23727470.319                        1266.350          31.100    23725553.746                         945.507          29.300  
E09                                                                  25312022.156                        3024.500          23.800  
E19                                                                  24870187.132                       -1487.250          25.800  
E26                                                                  28434697.273                        1280.850          29.100    28432794.491                         956.209          26.700  
E31                                                                                                                                  24568843.248                         -45.189          26.800  
G04  20468324.279                         -34.150          23.100    20465981.700                         -23.711          25.400  
G07  23342522.712                        1588.750          27.300  
G08  20958253.508                        -144.518          34.900    20955902.235                        -107.664          24.200  
G09  20763372.821                        2092.693          32.600    20761017.951                        1562.576          29.600  
G27                                                                  22816374.957                       -1428.739          26.800  
J02                                                                  42862138.264                         547.035          29.100  
J03                                                                  40724079.311                         -21.366          25.200  
R02  22022529.625                        3919.500          11.500  
R21  22847423.562                         980.309          29.000  
> 2022  2 23  5 39 10.4441787  0 22
C07  36990290.202                        -284.950          25.900  
C09  36781801.036                        1244.092          31.200  
C10  36570316.644                        -174.550          29.100  
C12  23454561.193                        1371.250          22.200  
C14  22162965.346                       -1247.900          16.800  
C16  37108815.549                         942.450          10.900  
C24  24256658.312                        -492.200          17.100  
C25  24321399.393                         586.450          23.500  
C33  22552145.722                         196.500          22.800  
E04                                                                  23727291.985                        1267.305          31.200    23725371.814                         946.368          29.200  
E09                                                                  25311488.269                        3026.950          20.700  
E19                                                                  24870531.337                       -1485.050          25.400  
E26                                                                  28434516.241                        1281.600          28.600    28432610.161                         956.950          23.800  
E31                                                                                                                                  24568911.344                         -44.230          27.400  
G04  20468404.366                         -32.000          22.900    20466045.899                         -22.841          27.100  
G07  23342270.630                        1589.650          27.700  
G08  20958339.591                        -143.812          34.900    20955985.920                        -107.500          22.900  
G09  20763032.599                        2093.691          31.700    20760679.228                        1563.458          30.800  
G27                                                                  22816797.407                       -1427.750          23.600  
J02                                                                  42862059.161                         548.365          28.300  
J03  40726489.386                         -31.250          21.600    40724142.011                         -20.248          24.200  
R21  22847324.374                         981.436          30.300  
> 2022  2 23  5 39 11.4441790  0 15
C07  36990460.676                        -287.700          22.200  
C09  36781656.428                        1247.500          28.900  
C10  36570453.541                        -172.050          27.500  
C25  24321358.213                         587.800          22.500  
E04                                                                  23727136.584                        1270.150          29.200    23725220.911                         948.477          28.400  
E19                                                                  24870896.976                       -1483.350          23.600  
E26                                                                  28434353.946                        1284.700          24.200  
E31                                                                                                                                  24569015.264                         -43.707          26.100  
G04                                                                  20466142.923                         -20.800          22.100  
G07  23342046.876                        1594.100          25.200  
G08  20958455.802                        -141.253          33.300  
G09  20762724.005                        2096.481          29.700    20760370.634                        1565.419          28.500  
J02                                                                  42862011.086                         550.822          25.400  
J03  40726584.312                         -25.000          23.800  
R21  22847217.840                         984.255          29.400  
> 2022  2 23  5 39 12.4441792  0 10
C09  36781469.853                        1247.200          22.800  
E04                                                                  23726956.904                        1270.100          25.000  
E19                                                                  24871244.930                       -1483.350          21.600  
E26                                                                  28434177.563                        1286.250          20.000  
G07  23341848.309                        1590.750          22.900  
G08  20958548.033                        -140.950          24.600  
G09  20762380.038                        2095.350          27.600  
G30  24691480.078                        1783.200          17.100  
R02  22020630.269                        3891.200          18.300  
R21  22847089.124                         983.850          25.100  
> 2022  2 23  5 39 13.4441795  0 14
C07  36990708.327                        -289.300          20.100  
C10  36570663.718                        -178.300          22.500  
C25  24321283.887                         588.700          20.300  
