     3.03           OBSERVATION DATA    M: Mixed            RINEX VERSION / TYPE
Geo++ RINEX Logger  Geo++               20220212 035754 UTC PGM / RUN BY / DATE
************************************************************COMMENT
This file was generated by the Geo++ RINEX Logger App       COMMENT
for Android devices (Version 2.1.6). If you encounter       COMMENT
any issues, please send an email to android@geopp.de        COMMENT
Filtering Mode: BEST                                        COMMENT
************************************************************COMMENT
geo                                                         MARKER NAME
GEODETIC                                                    MARKER TYPE
Geo++               Geo++                                   OBSERVER / AGENCY
unknown             OnePlus             IN2011              REC # / TYPE / VERS
unknown             IN2011                                  ANT # / TYPE
  1501562.5032  6066679.6700  1272403.9437                  APPROX POSITION XYZ
        0.0000        0.0000        0.0000                  ANTENNA: DELTA H/E/N
G    8 C1C L1C D1C S1C C5Q L5Q D5Q S5Q                      SYS / # / OBS TYPES
R    4 C1C L1C D1C S1C                                      SYS / # / OBS TYPES
E   12 C1B L1B D1B S1B C1C L1C D1C S1C C5Q L5Q D5Q S5Q      SYS / # / OBS TYPES
C    4 C2I L2I D2I S2I                                      SYS / # / OBS TYPES
J    8 C1C L1C D1C S1C C5Q L5Q D5Q S5Q                      SYS / # / OBS TYPES
  2022     2    12     3    58   12.4351145     GPS         TIME OF FIRST OBS
 24 R01  1 R02 -4 R03  5 R04  6 R05  1 R06 -4 R07  5 R08  6 GLONASS SLOT / FRQ #
    R09 -2 R10 -5 R11  0 R12 -1 R13 -2 R14 -7 R15  0 R16 -1 GLONASS SLOT / FRQ #
    R17  4 R18 -3 R19  3 R20  2 R21  4 R22 -3 R23  3 R24  2 GLONASS SLOT / FRQ #
G L1C                                                       SYS / PHASE SHIFT
G L5Q -0.25000                                              SYS / PHASE SHIFT
R L1C                                                       SYS / PHASE SHIFT
E L1B                                                       SYS / PHASE SHIFT
E L1C +0.50000                                              SYS / PHASE SHIFT
E L5Q -0.25000                                              SYS / PHASE SHIFT
C L2I                                                       SYS / PHASE SHIFT
J L1C                                                       SYS / PHASE SHIFT
J L5Q -0.25000                                              SYS / PHASE SHIFT
 C1C    0.000 C1P    0.000 C2C    0.000 C2P    0.000        GLONASS COD/PHS/BIS
                                                            END OF HEADER
> 2022  2 12  3 58 12.4351145  2  0
> 2022  2 12  3 58 12.4351145  0 34
C01  40387323.038                          29.800          36.100  
C02  35913116.667                          54.900          23.800  
C06  38196040.132                         627.892          30.800  
C07  36537317.541                         369.054          30.300  
C09  38147789.135                         579.794          29.800  
C10  36397489.542                         507.951          30.400  
C16  38352999.171                         703.764          34.500  
C19  22608633.469                        2269.549          38.100  
C20  22007678.201                        -341.306          40.500  
C27  26348910.429                         867.400          20.500  
C32  25342114.719                       -2625.340          30.800  
C36  23311991.544                         610.750          26.500  
E04                                                                  27537266.747                       -1229.091          33.600    27535353.172                        -917.918          32.400  
E05                                                                  25249635.941                        1855.657          31.800    25247719.068                        1385.720          34.200  
E09                                                                  22723430.896                         431.700          24.900    22721508.027                         322.400          31.400  
E24                                                                  24011318.010                       -1156.708          36.000    24009405.634                        -863.813          36.600  
E25                                                                                                                                  24468779.716                        1173.629          30.500  
E31                                                                  27109477.299                       -2642.540          36.600    27107564.024                       -1973.355          38.000  
G03  20622432.587                         584.954          29.200    20620071.721                         436.864          27.800  
G04  22693863.865                        2086.598          28.800  
G07  24615052.953                         926.550          25.700  
G08  23472333.442                        2372.650          17.900  
G09  25093198.240                        2477.053          29.500  
G16  20484411.437                       -1139.025          29.700  
G22  23799295.490                        -924.027          37.400  
G26  22800871.185                       -3149.920          40.500    22798515.116                       -2352.169          33.400  
G27  22925535.982                        1826.771          39.700    22923188.307                        1364.106          39.200  
G32  25069200.454                       -1735.000          27.400  
J01  37833739.147                         893.636          38.800    37831384.577                         667.288          34.500  
J02  42642271.370                        -482.775          37.300    42639924.295                        -360.550          38.200  
J03                                                                  40123873.520                        -223.750          19.000  
R04  20322957.909                       -1072.700          25.400  
R05  20028339.869                        2377.304          40.900  
R15  21074251.299                       -3195.175          36.000  
> 2022  2 12  3 58 13.4351145  0 33
C01  40387319.832                          16.350          35.800  
C05  36431910.905                         -13.950          24.100  
C06  38195920.906                         625.462          30.600  
C07  36537249.581                         367.850          29.000  
C09  38147677.105                         577.264          29.700  
C10  36397395.500                         505.102          29.700  
C16  38352865.556                         701.271          35.200  
C19  22608198.562                        2266.813          38.300  
C20  22007746.047                        -344.368          40.700  
C32  25344493.964                       -2628.136          36.900  
C36  23310001.614                         607.778          28.100  
E04                                                                  27537499.478                       -1231.899          34.300    27535589.200                        -920.018          33.100  
E05                                                                  25249276.282                        1853.160          31.200    25247366.304                        1383.837          33.900  
E09                                                                  22723330.558                         429.000          26.100    22721426.276                         320.472          32.500  
E24                                                                  24011540.848                       -1159.668          35.400    24009626.973                        -866.026          36.500  
E25                                                                                                                                  24468482.114                        1171.363          29.700  
E31                                                                  27109979.844                       -2645.198          37.100    27108067.467                       -1975.349          38.400  
G01  23946978.444                       -1604.050          17.100    23944649.956                       -1201.300          22.700  
G03  20622339.144                         581.747          29.500    20619962.689                         434.375          27.000  
G04  22693483.221                        2084.140          29.700  
G07  24614855.182                         926.500          25.100  
G08  23471870.055                        2370.600          21.400  
G09  25092743.247                        2477.600          28.400  
G16  20484645.367                       -1142.124          29.700  
G22  23799473.659                        -926.929          37.400  
G26  22801465.466                       -3152.740          40.800    22799115.693                       -2354.291          34.100  
G27  22925187.415                        1824.102          38.700    22922841.539                        1362.159          39.000  
G32  25069527.319                       -1737.050          27.300  
J01  37833565.959                         890.920          38.800    37831215.886                         665.258          35.600  
J02  42642367.695                        -485.329          37.700    42640016.723                        -362.458          38.600  
R04  20323156.763                       -1076.050          26.300  
R05  20027907.660                        2374.202          40.900  
R15  21074861.169                       -3197.955          35.800  
> 2022  2 12  3 58 14.4351145  0 33
C01  40387316.599                          20.100          35.800  
C06  38195799.254                         626.700          29.100  
C07  36537182.191                         370.350          28.500  
C09  38147584.833                         575.550          28.300  
C10  36397293.634                         505.494          29.700  
C16  38352730.113                         702.042          34.200  
C19  22607762.428                        2267.031          38.500  
C20  22007810.566                        -344.218          40.600  
C32  25343123.077                       -2627.667          31.900  
C36  23311769.554                         606.700          28.400  
E04                                                                  27537733.979                       -1231.610          33.200    27535823.402                        -919.748          33.300  
E05                                                                  25248928.886                        1853.823          31.200    25247014.112                        1384.322          34.400  
E09                                                                  22723261.969                         429.850          25.800    22721342.098                         320.655          32.700  
E24                                                                  24011763.058                       -1159.457          36.000    24009846.785                        -865.766          36.000  
E25                                                                                                                                  24468184.185                        1171.716          30.500  
E31                                                                  27110479.362                       -2644.636          36.400    27108570.583                       -1974.886          39.000  
G01                                                                  23944952.510                       -1199.150          22.600  
G03  20622217.792                         581.764          29.700    20619853.628                         434.534          27.500  
G04  22693080.363                        2084.678          30.100  
G07  24614705.650                         924.400          26.100  
G08  23471397.046                        2370.750          21.200  
G09  25092272.937                        2475.440          28.700  
G16  20484864.879                       -1142.245          29.700  
G22  23799646.104                        -926.609          38.000  
G26  22802072.310                       -3152.449          40.700    22799714.442                       -2354.034          33.900  
G27  22924840.319                        1824.516          38.500    22922493.844                        1362.492          39.100  
G32  25069855.057                       -1738.150          27.300  
J01  37833400.538                         891.391          39.100    37831045.368                         665.641          35.200  
J02  42642456.498                        -484.642          37.700    42640108.523                        -361.925          39.100  
J03                                                                  40123992.994                        -226.800          19.600  
R04  20323356.489                       -1074.750          26.500  
R05  20027454.438                        2374.388          40.800  
R15  21075447.627                       -3197.421          36.500  
> 2022  2 12  3 58 15.4351145  0 32
C01  40387311.513                          22.600          35.300  
C06  38195679.049                         626.700          29.000  
C07  36537102.458                         369.200          28.600  
C09  38147464.327                         576.750          27.000  
C10  36397204.007                         506.837          29.900  
C16  38352597.317                         703.432          33.600  
C19  22607327.140                        2267.961          37.200  
C20  22005985.740                        -343.394          34.800  
C32  25343628.538                       -2626.924          30.700  
C36  23309767.851                         608.765          26.900  
E04                                                                  27537970.827                       -1230.426          32.600    27536057.851                        -918.833          31.700  
E05                                                                  25248575.442                        1855.066          31.600    25246662.167                        1385.193          33.800  
E09                                                                  22723174.141                         430.600          26.500    22721261.165                         321.610          32.800  
E24                                                                  24011982.817                       -1158.589          36.300    24010068.343                        -865.177          35.100  
E25                                                                                                                                  24467885.003                        1172.342          28.500  
E31                                                                  27110984.223                       -2643.478          35.800    27109073.646                       -1974.036          38.100  
G01                                                                  23945259.809                       -1197.950          22.200  
G03  20622099.985                         582.609          29.700    20619743.016                         434.818          25.400  
G04  22692685.548                        2086.100          27.900  
G07  24614513.794                         928.450          26.200  
G08  23470945.870                        2375.950          22.200  
G09  25091801.375                        2477.100          28.000  
G16  20485084.039                       -1141.503          29.100  
G22  23799820.894                        -925.568          37.900  
G26  22802669.208                       -3151.436          39.700    22800313.739                       -2353.367          32.900  
G27  22924495.869                        1825.761          39.100    22922146.695                        1363.434          38.100  
G32  25070182.441                       -1732.550          25.900  
J01  37833225.470                         892.616          39.000    37830875.697                         666.610          34.200  
J02  42642548.545                        -483.269          37.400    42640200.870                        -361.054          38.200  
R04  20323537.575                       -1071.050          28.600  
R05  20027022.448                        2375.262          40.900  
R15  21076048.423                       -3196.385          36.500  
> 2022  2 12  3 58 16.4351145  0 34
C01  40387307.053                          43.300          36.300  
C05  36431885.235                          47.050          24.800  
C06  38195564.565                         635.300          28.000  
C07  36537041.937                         378.340          30.000  
C09  38147351.642                         590.850          28.400  
C10  36397104.213                         517.350          29.100  
C16  38352461.248                         713.563          33.800  
C19  22608773.676                        2277.808          37.200  
C20  22006050.533                        -333.743          36.000  
C27  26348238.798                         861.350          18.700  
C32  25346005.330                       -2617.030          38.200  
C36  23309647.671                         618.790          28.400  
E04                                                                  27538199.905                       -1220.461          29.400    27536290.227                        -911.372          30.700  
E05                                                                  25248221.125                        1865.381          32.200    25246307.250                        1393.035          34.200  
E09                                                                                                                                  22721178.460                         328.992          32.800  
E24                                                                  24012201.403                       -1148.711          36.500    24010286.629                        -857.814          34.000  
E25                                                                  24469479.936                        1581.100          22.100    24467583.749                        1179.998          27.800  
E31                                                                  27111484.614                       -2633.368          35.400    27109574.936                       -1966.304          38.100  
G01  23947924.401                       -1597.500          20.600    23945563.236                       -1190.700          22.900  
G03  20621992.096                         592.025          31.100    20619631.530                         442.478          26.200  
G04  22692287.760                        2095.800          28.300  
G07  24614329.758                         934.850          26.400  
G09  25091323.543                        2487.356          29.600  
G16  20485296.928                       -1130.900          26.900  
G22  23799996.010                        -915.778          38.200  
G26  22803269.729                       -3141.575          40.600    22800913.660                       -2346.011          34.100  
G27  22924147.547                        1835.582          39.400    22921797.774                        1370.923          37.500  
G32  25070491.564                       -1727.100          25.000  
J01  37833054.326                         902.504          39.700    37830704.852                         674.068          33.800  
J02  42642639.719                        -473.133          38.800    42640291.745                        -353.181          36.700  
R04  20323758.259                       -1063.604          30.900  
R05  20026557.807                        2385.102          41.500  
R09  22901521.311                        2763.800          16.000  
R15  21076654.940                       -3185.972          37.300  
> 2022  2 12  3 58 17.4351146  0 30
C01  40387330.454                          35.200          34.100  
C06  38195474.345                         636.450          29.000  
C07  36536978.997                         374.750          27.700  
C09  38147257.824                         590.099          31.200  
C10  36397030.781                         518.250          27.300  
C16  38352351.541                         713.176          32.700  
C19  22606484.178                        2277.405          37.600  
C20  22008035.176                        -334.926          38.000  
C32  25344664.675                       -2617.619          31.400  
C36  23311444.644                         617.866          30.800  
E04                                                                  27538461.941                       -1220.450          24.900    27536554.062                        -912.202          34.400  
E05                                                                  25247903.362                        1864.695          32.300    25245981.992                        1392.438          35.300  
E09                                                                  22723046.184                         439.050          24.700    22721124.814                         328.679          30.400  
E24                                                                  24012450.848                       -1149.188          34.400    24010536.972                        -858.561          32.600  
E25                                                                  24469232.924                        1576.850          26.400    24467316.351                        1178.904          27.900  
E31                                                                  27112017.362                       -2633.407          33.200    27110106.485                       -1966.933          37.300  
G03  20621906.373                         590.797          33.300    20619544.907                         441.155          25.900  
G04  22691933.723                        2094.650          25.100  
G09  25090903.550                        2487.150          25.600  
G16  20485530.783                       -1134.400          27.600  
G22  23800202.284                        -916.480          34.900  
G26  22803895.413                       -3141.923          38.900    22801543.241                       -2346.031          30.800  
G27  22923828.285                        1834.987          39.200    22921479.112                        1370.284          38.300  
G32  25070870.819                       -1724.950          21.600  
J01  37832915.539                         901.791          38.200    37830563.667                         673.420          35.200  
J02  42642757.555                        -473.168          35.000    42640411.379                        -353.721          35.700  
J03                                                                  40124192.721                        -219.400          18.100  
R04  20323972.628                       -1063.550          25.200  
R05  20026154.303                        2384.321          39.200  
R15  21077259.039                       -3186.894          33.300  
> 2022  2 12  3 58 18.4351146  0 34
C01  40387322.455                          29.028          36.300  
C02  35913125.377                          13.300          24.400  
C03  37008330.782                          40.400          32.000  
C05  36431927.618                         -14.700          32.000  
C06  38195346.129                         633.723          40.300  
C07  36536923.331                         373.332          33.300  
C09  38147143.399                         584.371          36.000  
C10  36396935.842                         511.410          30.600  
C16  38352216.729                         709.775          43.000  
C19  22606046.276                        2270.595          38.400  
C20  22008095.529                        -338.948          39.300  
C32  25345169.021                       -2623.254          31.900  
C36  23309442.725                         613.752          27.800  
E04                                                                  27538695.874                       -1222.506          34.100    27536786.796                        -912.738          37.500  
E05                                                                  25247539.809                        1858.478          39.000    25245626.533                        1389.643          30.800  
E09                                                                  22722952.144                         435.387          41.100    22721038.569                         325.353          32.500  
E24                                                                  24012670.990                       -1155.145          35.600    24010755.616                        -862.506          36.500  
E25                                                                  24468926.931                        1573.086          30.200    24467011.857                        1173.716          31.700  
E31                                                                  27112518.710                       -2636.927          36.500    27110607.534                       -1969.905          32.900  
G01  23948563.071                       -1596.550          23.900  
G03  20621784.452                         586.255          40.000    20619428.983                         435.917          36.600  
G04  22691532.096                        2089.142          41.100    22689177.226                        1560.286          37.400  
G07  24614036.074                         936.200          21.800  
G08  23469626.033                        2383.450          21.500  
G16  20485738.935                       -1137.908          37.700  
G22  23800377.758                        -918.211          37.000  
G26  22804499.590                       -3145.859          39.200    22802139.924                       -2349.099          37.000  
G27  22923479.122                        1832.902          39.400    22921128.450                        1368.752          38.000  
G32  25071194.090                       -1727.350          23.900  
J01  37832746.551                         900.242          39.500    37830392.881                         672.435          38.200  
J02  42642850.286                        -476.119          39.100    42640500.512                        -355.311          38.200  
R04  20324187.674                       -1068.465          40.500  
R05  20025710.406                        2379.114          38.500  
R15  21077863.815                       -3192.874          41.900  
> 2022  2 12  3 58 19.4351146  0 24
C06  38195225.461                         628.868          35.700  
C09  38147028.727                         580.862          29.700  
C16  38352077.174                         704.710          37.400  
C19  22607491.724                        2267.933          38.600  
C20  22008166.129                        -344.324          29.300  
C32  25347540.528                       -2629.400          28.700  
E04                                                                                                                                  27537020.482                        -918.848          29.800  
E05                                                                  25247186.202                        1856.136          36.000    25245274.125                        1386.123          29.600  
E09                                                                  22722867.751                         430.916          37.000  
E24                                                                  24012886.390                       -1158.850          27.500    24010976.412                        -865.366          31.200  
E25                                                                                                                                  24466712.213                        1172.041          30.100  
E31                                                                  27113019.812                       -2642.650          25.400    27111109.235                       -1973.368          29.600  
G03  20621680.273                         580.754          28.600    20619317.608                         432.800          27.600  
G04  22691134.120                        2087.275          41.400    22688777.151                        1558.593          30.900  
G08                                                                  23466795.840                        1774.150          22.900  
G16  20485960.929                       -1143.289          34.200  
G22  23800555.983                        -922.450          27.100  
G26  22805084.933                       -3151.431          29.400    22802739.057                       -2353.382          35.800  
G27  22923135.109                        1826.268          33.000    22920781.438                        1363.634          30.800  
J01  37832564.126                         891.600          24.000    37830223.646                         666.751          31.600  
J02  42642931.378                        -483.550          28.300    42640592.097                        -360.032          31.300  
R04  20324399.476                       -1074.950          23.900  
R05  20025271.358                        2370.300          24.900  
R15  21078462.649                       -3196.201          34.000  
> 2022  2 12  4  2 27.4351155  0 33
C01  40387539.254                          15.389          40.900  
C05  36432283.220                           8.200          26.700  
C06  38166183.566                         638.258          38.700  
C07  36521496.060                         323.662          35.200  
C09  38120040.110                         599.967          39.800  
C10  36374833.992                         469.500          22.100  
C13  39348215.163                       -1340.050          24.100  
C16  38319425.779                         713.967          40.400  
C19  22500583.235                        2189.714          38.900  
C20  22026903.357                        -474.123          33.500  
C27  26305747.875                         868.613          26.800  
C32  25475489.151                       -2697.802          39.700  
C36  23285558.009                         516.372          31.000  
E04                                                                  27599765.145                       -1299.520          33.800    27597855.767                        -970.746          34.000  
E05                                                                  25160830.285                        1852.950          27.900    25158906.217                        1382.507          32.100  
E09                                                                  22705097.153                         371.550          23.900    22703172.786                         276.478          30.400  
E24                                                                  24071036.134                       -1256.245          34.900    24069118.961                        -938.431          35.600  
E25                                                                                                                                  24396150.562                        1096.974          30.500  
E31                                                                  27239482.664                       -2667.743          34.900    27237572.386                       -1992.423          38.700  
G03  20599299.467                         416.600          29.900    20596928.109                         310.480          26.400  
G04  22593614.831                        2093.018          32.500    22591265.058                        1564.200          23.700  
G07  24572397.348                         878.550          28.000  
G09  24973136.822                        2518.154          30.900    24970780.454                        1880.445          26.200  
G16  20545164.744                       -1319.750          26.900  
G22  23847209.286                       -1003.777          40.400  
G26  22956607.436                       -3220.664          34.300    22954261.561                       -2404.842          40.900  
G27  22839048.921                        1784.027          41.500    22836701.546                        1332.134          38.800  
J01  37792622.677                         848.132          39.900    37790266.908                         633.257          38.300  
J02  42666652.356                        -474.663          37.900    42664305.281                        -354.579          38.300  
J03  40142081.780                        -304.775          28.900    40139739.202                        -227.652          32.300  
R04  20379607.357                       -1260.468          31.600  
R05  19919224.773                        2244.459          41.000  
R15  21229231.774                       -3251.154          41.800  
> 2022  2 12  4  2 28.4351155  0 33
C01  40387535.880                           9.510          41.100  
C02  35912931.983                          39.150          31.300  
C06  38166061.174                         632.559          39.900  
C07  36521433.027                         317.360          35.000  
C09  38119927.312                         594.157          40.100  
C10  36374733.485                         460.550          24.000  
C13  39348472.008                       -1345.300          22.400  
C16  38319291.995                         708.168          41.500  
C19  22500163.450                        2183.110          39.700  
C20  22026994.718                        -480.855          33.300  
C27  26305582.913                         862.663          28.600  
C32  25476008.915                       -2704.066          39.900  
C36  23283588.296                         509.352          23.200  
E04                                                                  27600013.897                       -1306.117          34.400    27598104.818                        -975.251          36.100  
E05                                                                  25160474.055                        1845.465          30.200    25158555.383                        1378.105          31.300  
E09                                                                  22705015.534                         363.848          30.700    22703102.258                         271.675          29.600  
E24                                                                  24071274.692                       -1263.008          36.400    24069358.119                        -943.002          36.400  
E25                                                                  24397801.742                        1463.050          21.000    24395870.179                        1092.208          31.500  
E31                                                                  27239991.935                       -2673.994          34.700    27238080.758                       -1996.696          39.700  
G03  20599219.646                         409.328          28.600    20596851.585                         305.759          27.800  
G04  22593225.624                        2086.805          33.200    22590870.155                        1558.200          26.500  
G07  24572240.481                         871.400          27.400  
G09  24972654.080                        2512.287          31.500    24970301.609                        1876.151          26.700  
G22  23847401.976                       -1010.129          40.900  
G26  22957220.436                       -3227.052          33.400    22954875.159                       -2409.821          43.000  
G27  22838711.278                        1777.681          41.600    22836363.303                        1327.583          40.300  
J01  37792459.214                         842.150          38.900    37790106.143                         628.958          39.900  
J02  42666747.015                        -480.669          36.900    42664396.342                        -358.905          40.300  
J03  40142145.260                        -311.600          28.400    40139799.084                        -231.853          33.700  
R04  20379852.511                       -1267.336          31.000  
R05  19918804.687                        2237.880          41.800  
R09  22775725.182                        2619.800          20.600  
R15  21229839.677                       -3257.191          42.400  
> 2022  2 12  4  2 29.4351155  0 35
C01  40387533.363                          13.115          41.400  
C02  35912933.065                          30.550          32.300  
C03  37008044.635                          24.100          24.100  
C06  38165938.142                         636.215          39.200  
C07  36521373.850                         321.008          35.600  
C09  38119810.575                         597.947          39.100  
C10  36374645.528                         460.100          26.600  
C13  39348733.010                       -1340.350          25.400  
C16  38319154.272                         711.965          41.100  
C19  22501620.923                        2186.483          39.400  
C20  22028977.427                        -477.676          40.400  
C27  26305414.911                         866.450          28.400  
C32  25476524.440                       -2700.502          40.000  
C36  23283487.748                         513.787          23.900  
E04                                                                  27600259.609                       -1302.497          35.300    27598352.029                        -972.672          35.500  
E05                                                                  25160119.882                        1849.158          30.100    25158204.808                        1380.880          32.900  
E09                                                                  22704949.761                         367.575          29.500    22703031.389                         274.517          29.000  
E24                                                                  24071516.207                       -1259.499          36.800    24069598.135                        -940.519          36.400  
E25                                                                  24397542.603                        1464.900          21.100    24395593.053                        1094.911          32.300  
E31                                                                  27240500.265                       -2670.352          35.400    27238589.088                       -1994.017          40.000  
G01  24025840.428                       -1584.350          17.400  
G03  20599154.473                         412.505          30.700    20596774.421                         308.020          27.000  
G04  22592830.979                        2090.575          33.400    22590471.313                        1561.160          24.600  
G07  24572068.582                         875.550          27.300  
G09  24972176.693                        2516.306          31.800    24969824.221                        1879.176          28.500  
G22  23847592.826                       -1006.627          41.100  
G26  22957844.486                       -3223.495          34.000    22955489.316                       -2407.159          42.500  
G27  22838371.195                        1781.402          41.800    22836024.420                        1330.246          40.800  
J01  37792302.304                         845.756          40.600    37789945.336                         631.506          39.900  
J02  42666837.434                        -476.838          37.000    42664487.661                        -356.016          39.900  
J03  40142220.989                        -306.650          28.800    40139857.725                        -229.046          33.600  
R04  20380093.126                       -1264.097          32.900  
R05  19918375.866                        2241.217          41.500  
R09  22775225.310                        2625.900          22.300  
R15  21230449.336                       -3253.629          42.100  
> 2022  2 12  4  2 30.4351155  0 33
C01  40387530.454                          10.585          41.800  
C02  35912922.661                          11.400          32.200  
C05  36432273.222                          38.500          24.600  
C06  38165817.714                         633.614          39.100  
C07  36521311.582                         318.210          36.000  
C09  38119697.642                         595.302          38.800  
C10  36374554.780                         456.700          27.200  
C13  39348993.618                       -1343.650          25.700  
C16  38319018.555                         709.320          40.900  
C19  22499324.302                        2183.508          39.700  
C20  22027179.061                        -480.826          34.500  
C27  26305250.114                         863.742          28.500  
C32  25477043.470                       -2703.456          40.100  
C36  23285255.113                         510.384          30.000  
E04                                                                  27600511.823                       -1305.371          36.300    27598600.346                        -974.855          35.600  
E05                                                                  25159770.713                        1846.459          30.200    25157852.341                        1378.813          33.200  
E09                                                                  22704888.693                         364.300          28.000    22702962.826                         272.301          29.600  
E24                                                                  24071755.231                       -1262.422          37.200    24069838.657                        -942.872          36.200  
E25                                                                  24397276.777                        1463.000          22.300    24395314.635                        1092.359          31.500  
E31                                                                  27241007.603                       -2672.864          34.900    27239097.325                       -1996.109          40.000  
G03  20599044.538                         408.999          31.100    20596695.364                         305.524          24.100  
G04  22592437.141                        2088.080          33.600    22590072.078                        1559.300          23.400  
G07  24571916.676                         871.671          28.600  
G09  24971695.015                        2513.746          31.500    24969346.441                        1877.122          28.800  
G22  23847781.784                       -1009.495          41.000  
G26  22958457.351                       -3226.339          34.300    22956102.481                       -2409.260          42.800  
G27  22838034.318                        1778.571          42.200    22835685.444                        1328.123          41.000  
J01  37792137.508                         842.954          41.100    37789784.736                         629.464          40.100  
J02  42666928.960                        -479.345          37.400    42664578.887                        -358.036          40.200  
J03  40142254.955                        -310.400          28.400    40139916.274                        -231.191          33.700  
R04  20380340.844                       -1267.623          33.600  
R05  19917971.835                        2237.901          41.300  
R15  21231051.109                       -3256.619          42.300  
> 2022  2 12  4  2 31.4351155  0 34
C01  40387528.342                           6.672          41.600  
C02  35912926.244                          20.650          33.300  
C06  38165696.884                         629.837          40.900  
C07  36521249.211                         313.981          35.900  
C09  38119585.506                         591.628          40.600  
C13  39349243.032                       -1342.850          25.200  
C16  38318883.035                         705.480          42.200  
C19  22500778.881                        2179.247          39.400  
C20  22027271.083                        -485.238          33.100  
C27  26305084.315                         859.500          29.000  
C32  25475692.291                       -2707.654          39.300  
C36  23285160.664                         506.001          29.900  
E04                                                                  27600759.737                       -1309.663          34.400    27598850.359                        -978.129          36.800  
E05                                                                  25159419.942                        1842.518          32.400    25157502.769                        1375.768          31.600  
E09                                                                  22704816.129                         360.458          31.900    22702894.759                         269.131          30.200  
E24                                                                  24071996.249                       -1266.812          36.600    24070078.477                        -946.058          36.000  
E25                                                                  24396956.584                        1458.600          24.700    24395034.015                        1089.022          32.000  
E31                                                                  27241517.536                       -2677.014          36.000    27239606.059                       -1999.117          39.500  
G01  24026396.018                       -1585.650          20.600  
G03  20598969.576                         405.850          25.700    20596615.605                         301.974          28.700  
G04  22592042.000                        2084.070          33.700    22589676.938                        1556.323          27.300  
G07  24571720.298                         867.411          29.000  
G09  24971219.530                        2509.999          32.600    24968865.260                        1874.114          27.900  
G16  20546648.897                       -1329.093          31.000  
G22  23847974.836                       -1013.843          41.100  
G26  22959065.316                       -3230.560          31.700    22956717.041                       -2412.456          43.500  
G27  22837699.735                        1774.348          41.800    22835348.463                        1324.977          40.700  
J01  37791978.304                         838.805          40.400    37789624.633                         626.305          39.800  
J02  42667024.879                        -483.351          37.500    42664670.309                        -361.001          40.600  
J03  40142311.602                        -313.502          28.900    40139976.218                        -233.988          33.900  
R04  20380556.980                       -1272.332          32.200  
R05  19917541.918                        2233.386          42.700  
R09  22774140.736                        2618.950          21.200  
R15  21231670.766                       -3260.767          43.000  
> 2022  2 12  4  2 32.4351155  0 35
C01  40387526.682                           7.784          41.800  
C02  35912921.886                          12.500          33.400  
C06  38165575.007                         630.983          40.400  
C07  36521192.389                         315.007          35.700  
C09  38119470.824                         592.831          40.300  
C10  36374392.717                         458.850          20.900  
C13  39349503.391                       -1344.150          26.700  
C16  38318746.469                         706.637          42.300  
C19  22498487.406                        2180.042          40.200  
C20  22027364.158                        -484.657          32.900  
C27  26304919.868                         860.635          29.600  
C32  25476211.970                       -2706.944          39.200  
C36  23285060.073                         506.677          30.600  
E04                                                                  27601009.304                       -1308.913          34.500    27599099.326                        -977.337          36.600  
E05                                                                  25159067.225                        1843.688          31.600    25157151.551                        1376.766          32.400  
E09                                                                  22704749.714                         361.298          31.600    22702826.245                         269.709          30.700  
E24                                                                  24072239.520                       -1266.269          36.900    24070320.249                        -945.462          36.200  
E25                                                                  24396684.212                        1459.150          24.200    24394756.846                        1089.688          31.700  
E31                                                                  27242024.923                       -2676.156          35.700    27240115.845                       -1998.298          38.900  
G01  24026695.650                       -1585.550          24.000  
G03  20598905.859                         405.009          28.600    20596540.796                         302.325          26.800  
G04  22591643.416                        2085.118          33.300    22589280.451                        1556.954          27.600  
G07  24571561.847                         869.400          26.800  
G09  24970742.699                        2511.166          31.400    24968390.228                        1875.185          27.600  
G16  20546919.149                       -1326.977          32.500  
G22  23848168.042                       -1013.047          41.300  
G26  22959676.731                       -3229.828          30.800    22957331.755                       -2411.920          43.200  
G27  22837359.010                        1775.289          42.200    22835010.736                        1325.774          40.600  
J01  37791820.752                         839.748          40.000    37789465.582                         627.065          39.700  
J02  42667110.759                        -482.206          37.200    42664761.885                        -360.059          40.500  
J03  40142372.599                        -312.258          29.200    40140035.117                        -233.174          34.000  
R04  20380788.259                       -1271.968          32.500  
R05  19917123.547                        2233.994          42.200  
R09  22773723.264                        2611.050          24.100  
R15  21232288.178                       -3259.768          42.700  
> 2022  2 12  4  2 33.4351156  0 35
C01  40387553.127                          10.163          41.400  
C06  38165485.733                         633.444          40.200  
C07  36521160.675                         317.425          36.300  
C09  38119388.745                         595.389          40.100  
C13  39349800.249                       -1346.300          24.800  
C16  38318640.706                         709.187          42.300  
C19  22499974.440                        2182.237          39.600  
C20  22027486.537                        -482.564          33.700  
C27  26304783.526                         863.407          30.000  
C30  25566190.843                        1035.491          21.600  
C32  25478631.659                       -2704.605          39.200  
C36  23283139.966                         507.561          23.200  
E04                                                                  27601287.875                       -1306.520          36.100    27599377.297                        -975.652          37.100  
E05                                                                  25158744.412                        1846.159          32.000    25156830.237                        1378.634          32.000  
E09                                                                  22704709.605                         363.694          30.800    22702785.537                         271.471          30.600  
E24                                                                  24072510.896                       -1264.035          36.400    24070590.126                        -943.819          36.200  
E25                                                                  24396427.953                        1460.750          23.400    24394509.281                        1091.318          32.200  
E31                                                                  27242563.414                       -2673.503          36.300    27240654.636                       -1996.477          38.900  
E36                                                                  27532639.599                       -1206.550          12.900  
G01  24027034.779                       -1586.400          23.500  
G03  20598839.669                         406.900          30.800    20596494.092                         303.802          25.900  
G04  22591266.041                        2087.721          33.600    22588913.869                        1558.986          25.900  
G07  24571419.509                         871.650          24.100  
G09  24970288.578                        2514.060          31.100    24967938.804                        1877.413          28.100  
G16  20547202.816                       -1325.168          33.300  
G22  23848392.650                       -1010.857          41.900  
G26  22960338.737                       -3227.467          34.500    22957975.473                       -2410.140          43.100  
G27  22837047.290                        1777.689          41.100    22834702.013                        1327.509          40.900  
J01  37791689.207                         842.081          41.700    37789334.936                         628.848          40.300  
J02  42667236.136                        -479.640          38.000    42664883.065                        -358.137          40.100  
J03  40142455.705                        -309.695          29.100    40140124.219                        -231.304          34.500  
R04  20381063.532                       -1270.021          33.600  
R05  19916725.786                        2236.044          41.400  
R09  22773279.635                        2617.650          25.500  
R15  21232918.705                       -3257.425          41.800  
> 2022  2 12  4  2 34.4351156  0 36
C01  40387551.685                          11.041          40.700  
C02  35912947.789                           4.300          30.600  
C05  36432289.057                          80.500          24.100  
C06  38165364.373                         634.426          40.300  
C07  36521099.574                         318.052          36.600  
C09  38119276.979                         596.406          39.100  
C10  36374230.350                         463.950          20.600  
C13  39350060.525                       -1343.900          25.900  
C16  38318504.357                         710.165          42.100  
C19  22497679.286                        2182.882          39.900  
C20  22029468.222                        -482.264          38.700  
C27  26304618.697                         864.223          29.900  
C30  25565995.735                        1035.623          21.700  
C32  25479151.256                       -2703.972          38.900  
C36  23284904.302                         509.435          30.700  
E04                                                                  27601537.359                       -1305.968          36.300    27599626.781                        -975.229          37.900  
E05                                                                  25158393.112                        1846.903          32.400    25156479.837                        1379.197          32.100  
E09                                                                  22704645.806                         364.267          31.500    22702717.241                         271.985          30.700  
E24                                                                  24072745.391                       -1263.571          35.800    24070831.516                        -943.493          36.500  
E25                                                                                                                                  24394231.430                        1091.593          32.800  
E31                                                                  27243073.118                       -2672.767          35.900    27241163.141                       -1995.822          39.200  
G03  20598771.373                         407.118          30.000    20596414.704                         303.939          27.400  
G04  22590873.069                        2088.677          33.300    22588515.502                        1559.713          25.800  
G07  24571243.587                         871.900          25.300  
G09  24969816.461                        2514.932          30.700    24967462.191                        1878.131          28.500  
G16  20547450.801                       -1324.800          30.700  
G22  23848583.675                       -1010.272          41.900  
G26  22960950.070                       -3226.824          34.800    22958590.104                       -2409.676          43.500  
G27  22836709.480                        1778.375          41.200    22834363.604                        1328.018          41.200  
J01  37791529.774                         842.828          42.500    37789174.604                         629.387          40.600  
J02  42667326.130                        -478.714          38.800    42664974.858                        -357.448          40.300  
J03  40142519.617                        -308.646          29.400    40140183.035                        -230.585          34.400  
R04  20381306.421                       -1269.924          35.200  
R05  19916328.618                        2236.400          41.700  
R09  22772837.198                        2620.250          26.000  
R15  21233526.141                       -3256.651          40.800  
> 2022  2 12  4  2 35.4351156  0 36
C01  40387550.802                          10.780          40.800  
C06  38165241.775                         634.147          40.600  
C07  36521039.033                         317.545          36.300  
C09  38119158.877                         596.079          39.000  
C13  39350316.565                       -1342.000          24.400  
C16  38318367.668                         709.814          42.200  
C19  22499134.795                        2182.163          40.300  
C20  22029561.174                        -483.209          38.000  
C27  26304452.628                         863.712          29.800  
C30  25565796.390                        1038.609          22.400  
C32  25479669.914                       -2704.614          39.100  
C36  23284811.383                         508.754          30.500  
E04                                                                  27601786.203                       -1306.533          36.100    27599875.326                        -975.613          37.800  
