     3.03           OBSERVATION DATA    M: Mixed            RINEX VERSION / TYPE
Geo++ RINEX Logger  Geo++               20220219 125942 UTC PGM / RUN BY / DATE
************************************************************COMMENT
This file was generated by the Geo++ RINEX Logger App       COMMENT
for Android devices (Version 2.1.6). If you encounter       COMMENT
any issues, please send an email to android@geopp.de        COMMENT
Filtering Mode: BEST                                        COMMENT
************************************************************COMMENT
geo                                                         MARKER NAME
GEODETIC                                                    MARKER TYPE
Geo++               Geo++                                   OBSERVER / AGENCY
unknown             OnePlus             IN2011              REC # / TYPE / VERS
unknown             IN2011                                  ANT # / TYPE
  1490551.8650  6068923.6712  1275644.1999                  APPROX POSITION XYZ
        0.0000        0.0000        0.0000                  ANTENNA: DELTA H/E/N
G    8 C1C L1C D1C S1C C5Q L5Q D5Q S5Q                      SYS / # / OBS TYPES
R    4 C1C L1C D1C S1C                                      SYS / # / OBS TYPES
E   12 C1B L1B D1B S1B C1C L1C D1C S1C C5Q L5Q D5Q S5Q      SYS / # / OBS TYPES
C    4 C2I L2I D2I S2I                                      SYS / # / OBS TYPES
J    8 C1C L1C D1C S1C C5Q L5Q D5Q S5Q                      SYS / # / OBS TYPES
  2022     2    19    13     0    0.4438558     GPS         TIME OF FIRST OBS
 24 R01  1 R02 -4 R03  5 R04  6 R05  1 R06 -4 R07  5 R08  6 GLONASS SLOT / FRQ #
    R09 -2 R10 -5 R11  0 R12 -1 R13 -2 R14 -7 R15  0 R16 -1 GLONASS SLOT / FRQ #
    R17  4 R18 -3 R19  3 R20  2 R21  4 R22 -3 R23  3 R24  2 GLONASS SLOT / FRQ #
G L1C                                                       SYS / PHASE SHIFT
G L5Q -0.25000                                              SYS / PHASE SHIFT
R L1C                                                       SYS / PHASE SHIFT
E L1B                                                       SYS / PHASE SHIFT
E L1C +0.50000                                              SYS / PHASE SHIFT
E L5Q -0.25000                                              SYS / PHASE SHIFT
C L2I                                                       SYS / PHASE SHIFT
J L1C                                                       SYS / PHASE SHIFT
J L5Q -0.25000                                              SYS / PHASE SHIFT
 C1C    0.000 C1P    0.000 C2C    0.000 C2P    0.000        GLONASS COD/PHS/BIS
                                                            END OF HEADER
> 2022  2 19 13  0  0.4438558  0 34
C02  35904183.508                          -2.300          34.100  
C05  36417007.588                           0.550          34.300  
C06  40683920.065                        -364.050          24.700  
C08  36477516.798                        -518.950          27.500  
C09  39778270.733                        -852.600          22.400  
C10  36621275.376                         718.400          25.400  
C11  26110035.256                         904.800          22.700  
C12  23323960.515                        -347.557          32.500  
C13  36163821.465                        -266.033          34.500  
C16  40703127.169                        -351.550          25.100  
C21  25252702.275                        2024.679          31.000  
C22  24821370.780                        1132.982          31.800  
C24  23121521.761                        1593.770          32.300  
C26  21577790.564                       -1119.428          37.100  
C34  24912154.232                         539.916          30.000  
E02                                                                  23396630.207                         843.247          33.400    23394712.135                         629.793          35.600  
E03                                                                  27861234.826                         267.950          27.800    27859319.152                         199.502          30.200  
E15                                                                  25680362.212                        1265.675          32.000    25678450.136                         945.205          32.200  
E25                                                                  25150402.296                       -1427.083          30.700    25148489.920                       -1065.571          30.600  
E30                                                                  26185167.743                        2487.100          23.200  
E36                                                                                                                                  25918427.403                       -1735.377          25.700  
G02  20987533.390                        -759.556          38.000  
G05  23494129.610                        3246.373          32.300  
G06  21801491.499                       -2718.700          26.600  
G13  24668243.088                        -756.561          33.000  
G14  23047555.766                       -2083.982          32.900    23045202.396                       -1556.390          36.100  
G20  21475531.056                        2316.655          33.400  
G24  22389233.114                         266.994          32.600    22386875.846                         199.355          33.500  
J02  37464715.374                         423.946          30.700    37462358.406                         316.437          30.800  
J03                                                                  42455035.448                         406.800          22.000  
R09  23095649.072                       -4100.687          29.200  
R10  19716684.980                       -1916.697          35.300  
R21  21454585.757                       -2187.400          27.200  
R22  21341201.851                        -252.500          22.200  
> 2022  2 19 13  0  1.4438558  0 32
C02  35904185.795                           5.950          34.300  
C05  36417000.581                          -1.600          34.100  
C06  40683988.607                        -364.200          23.500  
C08  36477613.520                        -519.800          26.900  
C09  39778445.102                        -858.050          21.700  
C10  36621139.459                         720.450          24.300  
C11  26109855.569                         906.050          23.800  
C12  23324028.457                        -346.437          32.800  
C13  36163867.821                        -264.958          34.900  
C16  40703196.609                        -349.600          25.600  
C21  25250432.136                        2026.064          31.800  
C22  24821157.216                        1134.063          31.500  
C24  23123097.359                        1594.679          35.500  
C26  21579886.901                       -1118.460          40.000  
C34  24913924.395                         541.262          33.100  
E02                                                                  23396469.108                         844.356          33.500    23394551.635                         630.594          35.600  
E03                                                                  27861175.356                         269.300          26.800    27859267.776                         200.857          30.600  
E15                                                                  25680119.869                        1266.666          32.200    25678210.191                         945.936          33.700  
E25                                                                  25150672.298                       -1425.950          30.300    25148760.821                       -1064.782          31.000  
E36                                                                                                                                  25918867.987                       -1734.237          26.100  
G02  20987676.280                        -758.725          37.600  
G05  23493515.524                        3247.632          31.800  
G06  21802002.534                       -2715.350          28.000  
G13  24668390.175                        -754.878          32.800  
G14  23047950.182                       -2083.081          32.600    23045598.310                       -1555.539          36.100  
G20  21475092.649                        2317.687          33.600  
G24  22389183.837                         267.797          33.100    22386823.870                         199.994          33.200  
J02  37464628.324                         425.080          31.300    37462276.752                         317.478          30.900  
R09  23096427.522                       -4099.734          30.400  
R10  19717041.322                       -1916.164          35.300  
R21  21455040.131                       -2187.800          27.500  
R22  21341204.737                        -247.450          23.300  
> 2022  2 19 13  0  2.4438558  0 32
C02  35904182.333                         -30.650          33.600  
C05  36417001.616                           6.850          34.600  
C06  40684075.082                        -369.650          23.500  
C08  36477712.886                        -518.900          28.400  
C09  39778598.131                        -851.000          23.800  
C10  36620999.591                         720.600          25.300  
C11  26109674.929                         902.800          27.000  
C12  23324096.945                        -348.377          31.800  
C13  36163922.519                        -267.046          34.800  
C16  40703248.608                        -348.500          24.900  
C21  25250044.939                        2024.500          32.500  
C22  24820933.407                        1131.915          31.400  
C24  23122794.404                        1592.363          35.800  
C26  21580101.688                       -1120.835          40.100  
C34  24913822.001                         539.198          34.000  
E02                                                                  23396306.755                         842.120          33.900    23394391.081                         628.947          35.500  
E03                                                                  27861126.625                         266.850          28.000    27859216.347                         199.651          30.100  
E15                                                                  25679881.969                        1264.511          31.200    25677968.394                         944.397          32.900  
E25                                                                  25150949.441                       -1428.220          30.200    25149033.468                       -1066.468          30.800  
E36                                                                                                                                  25919311.815                       -1735.529          24.800  
G02  20987821.515                        -761.100          36.900  
G05  23492895.688                        3245.648          30.700  
G06  21802531.203                       -2717.500          27.700    21800169.138                       -2028.950          23.200  
G13  24668536.609                        -756.642          32.100  
G14  23048343.945                       -2085.464          32.500    23045995.371                       -1557.325          35.600  
G20  21474647.892                        2315.406          33.300  
G24  22389123.414                         265.442          33.100    22386773.340                         198.258          32.900  
J02  37464550.213                         423.033          31.200    37462195.943                         315.946          29.300  
R09  23097205.019                       -4101.809          30.100  
R10  19717401.208                       -1918.836          36.200  
R21  21455406.312                       -2190.000          27.800  
R22  21341403.035                        -253.200          23.900  
> 2022  2 19 13  0  3.4438558  0 33
C02  35904186.906                         -21.400          33.700  
C05  36416999.294                          -4.400          35.100  
C06  40684135.717                        -366.550          23.800  
C08  36477809.496                        -524.750          26.800  
C09  39778766.990                        -856.300          24.600  
C10  36620857.865                         719.600          24.800  
C11  26109505.623                         898.550          26.700  
C12  23324160.278                        -350.567          32.300  
C13  36163972.361                        -269.280          34.900  
C16  40703328.730                        -349.650          23.600  
C21  25249655.585                        2022.531          32.400  
C22  24818832.238                        1129.685          32.400  
C24  23122484.495                        1589.808          35.400  
C26  21580316.715                       -1123.426          40.100  
C34  24911842.848                         537.081          28.200  
E02                                                                  23396146.742                         839.692          34.500    23394230.769                         627.123          35.200  
E03                                                                  27861074.837                         265.550          28.700    27859166.058                         198.481          30.800  
E15                                                                  25679638.314                        1262.127          31.400    25677727.437                         942.462          33.300  
E25                                                                  25151215.733                       -1430.677          30.500    25149304.556                       -1068.392          32.100  
E36                                                                                                                                  25919751.687                       -1737.364          26.300  
G02  20987967.890                        -763.681          37.100  
G05  23492263.802                        3243.603          30.800  
G06  21803037.329                       -2720.550          28.500    21800685.457                       -2030.150          22.700  
G13  24668676.688                        -758.315          32.300  
G14  23048739.447                       -2087.967          32.100    23046391.173                       -1559.175          35.800  
G20  21474205.475                        2312.949          33.700  
G24  22389074.924                         262.901          33.600    22386722.752                         196.280          33.300  
J02  37464471.744                         420.771          30.800    37462115.375                         314.179          29.200  
J03                                                                  42454721.066                         408.300          23.500  
R09  23097959.673                       -4104.139          30.700  
R10  19717748.145                       -1921.757          36.300  
R21  21455839.589                       -2191.450          27.600  
R22  21341387.223                        -258.000          23.600  
> 2022  2 19 13  0  4.4438558  0 33
C02  35904190.349                           4.850          33.800  
C05  36417003.036                          -1.050          35.200  
C06  40684215.007                        -367.850          23.600  
C08  36477913.968                        -524.600          26.700  
C09  39778934.420                        -860.950          25.200  
C10  36620730.898                         718.700          23.900  
C11  26109349.576                         899.350          28.700  
C12  23324229.075                        -352.153          31.900  
C13  36164023.770                        -270.934          35.100  
C16  40703404.122                        -347.450          24.100  
C21  25251145.698                        2021.130          30.900  
C22  24820500.128                        1127.884          31.700  
C24  23122185.147                        1587.762          34.600  
C26  21578651.513                       -1125.400          36.300  
C34  24913615.666                         535.289          34.100  
E02                                                                  23395986.199                         837.842          34.000    23394071.424                         625.663          35.300  
E03                                                                  27861027.915                         264.150          27.600    27859115.239                         197.451          31.700  
E15                                                                  25679399.225                        1260.178          31.700    25677487.448                         941.069          33.100  
E25                                                                  25151488.390                       -1432.599          31.300    25149576.913                       -1069.821          31.600  
E36                                                                                                                                  25920195.225                       -1738.514          26.500  
G02  20988112.235                        -765.658          37.700  
G05  23491663.463                        3242.192          30.900  
G06  21803561.811                       -2721.067          29.100    21801202.145                       -2031.912          25.100  
G13  24668818.335                        -759.722          32.200  
G14  23049143.113                       -2089.941          32.200    23046788.843                       -1560.602          35.300  
G20  21473775.417                        2311.156          33.000  
G24  22389025.303                         260.785          33.400    22386673.431                         194.680          33.200  
J02  37464383.750                         418.914          31.200    37462036.075                         312.896          29.300  
J03                                                                  42454616.883                         405.750          23.200  
R09  23098724.289                       -4106.014          30.200  
R10  19718111.938                       -1924.030          35.800  
R21  21456235.760                       -2192.550          28.800  
R22  21341474.308                        -260.450          23.100  
> 2022  2 19 13  0  5.4438558  0 33
C02  35904196.759                         -31.700          34.100  
C05  36417004.350                         -10.750          34.700  
C06  40684272.381                        -374.400          24.000  
C08  36478011.815                        -523.850          26.900  
C09  39779096.722                        -856.700          24.200  
C10  36620575.720                         712.400          24.800  
C11  26109191.100                         896.250          27.400  
C12  23324296.942                        -352.970          31.400  
C13  36164077.547                        -271.824          35.100  
C16  40703455.801                        -357.700          24.200  
C21  25250759.680                        2020.285          31.000  
C22  24820285.291                        1127.105          31.200  
C24  23119993.479                        1586.577          32.500  
C26  21580750.175                       -1126.683          39.900  
C34  24911637.150                         534.355          28.800  
E02                                                                  23395828.022                         836.725          33.700    23393911.449                         624.774          35.500  
E03                                                                  27860975.865                         263.900          28.800    27859065.288                         197.016          31.700  
E15                                                                  25679159.505                        1258.939          31.100    25677248.328                         940.193          33.500  
E25                                                                  25151756.518                       -1433.822          30.400    25149848.939                       -1070.625          31.700  
E36                                                                                                                                  25920638.433                       -1739.049          26.700  
G02  20988258.048                        -766.899          37.600  
G05  23491040.608                        3241.361          29.700  
G06  21804092.858                       -2722.311          29.300  
G13  24668970.444                        -760.102          32.900  
G14  23049538.953                       -2090.995          32.800    23047186.782                       -1561.559          35.600  
G20  21473333.038                        2310.147          32.600  
G24  22388983.446                         259.485          33.800    22386623.780                         193.753          32.900  
J02  37464309.216                         418.025          31.100    37461955.545                         312.244          28.900  
J03                                                                  42454515.668                         404.850          23.400  
R09  23099515.555                       -4107.012          30.200  
R10  19718483.795                       -1925.692          36.000  
R21  21456647.189                       -2194.850          28.600  
R22  21341433.650                        -261.600          24.800  
> 2022  2 19 13  0  6.4438557  0 33
C02  35904163.898                         -12.450          33.400  
C05  36416972.688                           9.750          35.000  
C06  40684300.678                        -370.300          23.000  
C08  36478088.678                        -530.850          27.700  
C09  39779216.155                        -856.700          23.000  
C10  36620416.647                         715.600          24.700  
C11  26108974.766                         892.650          27.600  
C12  23324335.732                        -354.007          31.800  
C13  36164101.347                        -273.070          35.300  
C16  40703503.285                        -353.200          24.100  
C21  25250333.791                        2019.592          31.200  
C22  24820041.376                        1125.808          31.000  
C24  23121546.220                        1585.233          34.700  
C26  21580937.362                       -1128.107          40.100  
C34  24913380.559                         533.189          34.500  
E02                                                                  23395637.471                         835.361          33.800    23393722.996                         623.815          35.400  
E03                                                                  27860895.337                         263.300          28.600    27858984.760                         196.435          31.400  
E15                                                                  25678891.907                        1257.763          31.900    25676978.631                         939.220          33.900  
E25                                                                  25152012.658                       -1435.109          29.800    25150093.086                       -1071.577          31.900  
E36                                                                                                                                  25921051.363                       -1739.763          26.500  
G02  20988375.983                        -768.275          37.600  
G05  23490404.265                        3240.473          30.200  
G06  21804568.745                       -2722.500          27.600    21802210.277                       -2034.700          22.600  
G13  24669082.083                        -760.850          33.300  
G14  23049917.708                       -2092.464          32.500    23047555.643                       -1562.600          36.000  
G20  21472857.384                        2308.832          32.600  
G24  22388887.329                         258.032          33.400    22386543.852                         192.674          33.100  
J02  37464202.306                         416.965          31.100    37461847.736                         311.225          27.300  
J03                                                                  42454379.378                         405.250          23.700  
R09  23100232.176                       -4108.414          30.600  
R10  19718814.882                       -1927.423          36.300  
R21  21457031.040                       -2194.600          28.200  
R22  21341492.226                        -263.550          24.500  
> 2022  2 19 13  0  7.4438557  0 33
C02  35904164.552                           0.450          34.100  
C05  36416970.944                           8.450          35.100  
C06  40684385.874                        -371.850          23.900  
C08  36478186.465                        -528.800          28.100  
C09  39779384.993                        -856.000          24.300  
C10  36620293.487                         711.300          25.500  
C11  26108797.044                         901.450          26.200  
C12  23324399.942                        -353.806          31.800  
C13  36164153.266                        -272.763          35.300  
C16  40703574.990                        -358.500          23.600  
C21  25248074.010                        2020.077          33.100  
C22  24819820.484                        1126.175          31.800  
C24  23121237.789                        1585.167          34.700  
C26  21581152.368                       -1128.235          40.000  
C34  24911401.984                         533.516          29.700  
E02                                                                  23395481.334                         835.432          34.300    23393564.161                         623.828          35.300  
E03                                                                  27860847.725                         263.250          28.600    27858935.349                         197.114          31.600  
E15                                                                  25678649.729                        1257.681          31.900    25676740.051                         939.232          34.300  
E25                                                                  25152279.228                       -1435.108          29.300    25150364.753                       -1071.628          32.300  
E36                                                                                                                                  25921495.411                       -1739.542          25.800  
G02  20988521.138                        -768.394          37.900  
G05  23489788.846                        3240.859          30.300  
G06  21805094.336                       -2722.900          27.400  
G13  24669220.043                        -760.000          33.800  
G14  23050310.490                       -2092.487          32.200    23047953.522                       -1562.564          35.200  
G20  21472413.446                        2308.846          32.700  
G24  22388857.105                         257.867          32.900    22386495.940                         192.625          32.900  
J02  37464120.218                         417.061          30.700    37461768.646                         311.434          27.800  
J03                                                                  42454277.204                         405.400          22.600  
R09  23101012.590                       -4108.150          30.100  
R10  19719167.493                       -1927.904          35.900  
R21  21457431.618                       -2193.350          28.700  
R22  21341599.906                        -262.150          24.400  
> 2022  2 19 13  0  8.4438557  0 33
C02  35904169.637                           2.300          33.700  
C05  36416969.433                          -1.550          34.800  
C06  40684469.504                        -375.150          23.700  
C08  36478284.785                        -526.750          27.700  
C09  39779570.853                        -859.500          24.000  
C10  36620152.872                         716.400          24.900  
C11  26108617.757                         897.850          26.200  
C12  23324473.080                        -354.357          31.800  
C13  36164206.317                        -273.457          35.100  
C16  40703633.138                        -358.900          25.900  
C21  25247685.468                        2019.808          32.400  
C22  24819601.024                        1125.321          31.500  
C24  23119050.791                        1584.202          32.500  
C26  21579487.608                       -1129.137          36.900  
C34  24913176.443                         532.770          33.700  
E02                                                                  23395324.231                         834.604          34.300    23393405.259                         623.275          35.500  
E03                                                                  27860795.849                         263.550          27.400    27858884.972                         196.877          31.600  
E15                                                                  25678410.483                        1257.002          31.400    25676499.906                         938.654          34.000  
E25                                                                  25152556.224                       -1435.855          29.600    25150638.152                       -1072.302          31.500  
E36                                                                  25923848.170                       -2331.600          20.900    25921939.991                       -1739.786          25.000  
G02  20988670.123                        -769.299          37.600  
G05  23489164.966                        3240.378          30.500  
G06  21805600.973                       -2723.750          27.600  
G13  24669364.831                        -760.313          33.600  
G14  23050704.706                       -2093.282          32.500    23048352.234                       -1563.209          35.800  
G20  21471984.731                        2308.109          33.400  
G24  22388791.439                         256.927          33.300    22386445.863                         191.843          33.100  
J02  37464053.052                         416.506          30.300    37461687.990                         311.058          27.500  
J03                                                                  42454172.564                         403.500          22.500  
R09  23101760.860                       -4106.800          28.600  
R10  19719524.834                       -1929.114          35.900  
R21  21457819.237                       -2195.350          28.600  
R22  21341607.089                        -261.200          23.700  
> 2022  2 19 13  0  9.4438557  0 32
C02  35904172.437                         -12.650          34.000  
C05  36416970.734                           6.550          34.900  
C06  40684524.468                        -374.000          25.700  
C08  36478386.217                        -527.200          28.200  
C10  36620018.067                         711.750          23.900  
C11  26108441.880                         894.300          25.700  
C12  23324540.934                        -354.285          32.000  
C13  36164257.084                        -273.405          35.300  
C16  40703704.290                        -353.600          25.700  
C21  25249177.636                        2020.024          31.600  
C22  24819391.571                        1125.514          31.400  
C24  23120633.197                        1583.947          35.600  
C26  21581587.156                       -1129.469          40.000  
C34  24911197.615                         532.878          30.800  
E02                                                                  23395163.943                         834.550          34.900    23393246.171                         623.160          35.500  
E03                                                                  27860736.591                         263.900          25.600    27858833.809                         197.352          31.700  
E15                                                                  25678169.251                        1256.716          32.500    25676261.372                         938.561          34.600  
E25                                                                  25152826.139                       -1436.040          29.600    25150912.264                       -1072.422          31.700  
E36                                                                  25924284.469                       -2329.450          21.000    25922381.687                       -1739.100          23.700  
G02  20988819.221                        -769.555          37.600  
G05  23488553.491                        3240.594          31.600  
G06  21806117.317                       -2724.100          26.500  
G13  24669513.929                        -759.696          33.400  
G14  23051106.229                       -2093.493          32.500    23048749.860                       -1563.292          35.400  
G20  21471545.936                        2308.043          33.300  
G24  22388751.368                         256.590          33.900    22386397.098                         191.670          32.700  
J02  37463972.510                         416.503          30.800    37461608.646                         310.920          26.800  
J03                                                                  42454071.936                         405.700          22.700  
R09  23102567.104                       -4106.650          28.100  
R10  19719888.283                       -1929.670          35.600  
R21  21458262.432                       -2193.500          28.800  
R22  21341683.938                        -268.600          23.000  
> 2022  2 19 13  0 10.4438557  0 33
C02  35904176.057                         -12.050          33.800  
C05  36416968.358                          -3.800          35.000  
C06  40684604.835                        -370.000          25.100  
C08  36478487.270                        -525.850          27.700  
C09  39779888.157                        -865.100          22.800  
C10  36619867.594                         713.800          25.300  
C11  26108273.419                         899.250          27.200  
C12  23324612.008                        -353.121          32.700  
C13  36164308.371                        -272.328          34.800  
C16  40703784.357                        -354.650          25.000  
C21  25246910.029                        2021.473          32.400  
C22  24817289.149                        1126.524          32.300  
C24  23118441.737                        1584.784          33.100  
C26  21579921.232                       -1128.726          36.100  
C34  24911094.209                         534.131          31.600  
E02                                                                  23395002.378                         835.329          34.100    23393087.304                         623.849          35.300  
E03                                                                  27860688.947                         266.000          24.800    27858783.467                         198.488          32.600  
E15                                                                  25677931.239                        1257.853          31.600    25676022.161                         939.233          34.500  
E25                                                                  25153100.472                       -1435.182          29.800    25151185.697                       -1071.541          31.000  
E36                                                                  25924743.774                       -2328.950          22.300    25922821.505                       -1738.848          25.300  
G02  20988961.345                        -768.753          38.100  
G05  23487928.746                        3241.839          32.300  
G06  21806642.277                       -2723.950          26.400  
G13  24669659.351                        -758.056          32.600  
G14  23051493.884                       -2092.639          32.500    23049148.008                       -1562.728          35.600  
G20  21471102.566                        2309.060          33.800  
G24  22388703.124                         257.469          33.900    22386348.554                         192.209          33.500  
J02  37463883.194                         417.456          30.500    37461529.224                         311.766          27.800  
J03  42456341.088                         542.200          13.000    42453968.230                         405.550          22.300  
R09  23103305.216                       -4107.800          28.900  
R10  19720259.150                       -1929.207          35.300  
R21  21458664.477                       -2192.650          28.000  
R22  21341688.458                        -261.750          24.600  
> 2022  2 19 13  0 11.4438557  0 33
C02  35904175.284                          -1.200          33.600  
C05  36416971.183                          14.950          34.300  
C06  40684669.716                        -370.200          24.900  
C08  36478592.623                        -523.600          26.600  
C09  39780051.671                        -855.450          22.300  
C10  36619741.508                         717.850          24.900  
C11  26108120.651                         895.600          27.300  
C12  23324672.093                        -351.063          31.600  
C13  36164362.160                        -270.520          35.200  
C16  40703841.444                        -352.950          26.500  
C21  25246521.324                        2023.669          32.100  
C22  24817071.926                        1128.372          32.300  
C24  23120020.570                        1586.450          34.400  
C26  21580137.509                       -1127.129          36.700  
C34  24912867.608                         535.825          32.500  
E02                                                                  23394842.115                         837.165          34.200    23392927.940                         625.177          35.500  
E03                                                                  27860648.002                         268.650          27.700    27858732.928                         200.278          32.100  
E15                                                                  25677693.330                        1259.359          32.400    25675782.753                         940.539          34.400  
E25                                                                  25153368.013                       -1433.380          30.000    25151457.735                       -1070.309          32.200  
E36                                                                                                                                  25923268.322                       -1737.221          25.200  
G02  20989105.672                        -767.091          37.700  
G05  23487311.000                        3244.048          32.700  
G06  21807147.853                       -2720.350          26.200  
G13  24669796.183                        -755.789          32.700  
G14  23051900.828                       -2090.936          32.400    23049545.959                       -1561.477          35.300  
G20  21470665.295                        2310.691          33.000  
G24  22388645.990                         258.996          34.000    22386300.114                         193.356          32.600  
J02  37463810.471                         419.409          31.400    37461449.605                         313.287          28.800  
J03                                                                  42453863.729                         406.050          23.400  
R09  23104073.410                       -4106.049          29.600  
R10  19720609.433                       -1927.880          35.400  
R21  21459083.713                       -2190.700          27.900  
R22  21341731.454                        -260.300          24.700  
> 2022  2 19 13  0 12.4438557  0 32
C02  35904175.829                         -15.550          34.800  
C05  36416969.329                          15.000          34.100  
C06  40684736.516                        -364.600          25.300  
C08  36478693.898                        -524.900          28.600  
C09  39780211.106                        -857.050          22.700  
C10  36619596.054                         719.900          24.400  
C11  26107944.319                         900.550          26.600  
C12  23324744.588                        -350.174          31.400  
C13  36164410.672                        -269.683          34.700  
C16  40703915.438                        -349.500          26.300  
C21  25248015.135                        2024.803          29.700  
C22  24818741.415                        1129.265          31.000  
C24  23119718.325                        1586.981          34.100  
C26  21580354.504                       -1126.586          36.100  
C34  24910890.122                         536.764          29.500  
E02                                                                  23394684.370                         837.921          34.800    23392768.996                         625.729          35.700  
E03                                                                  27860586.790                         269.600          27.200    27858681.908                         201.250          31.600  
E15                                                                  25677453.142                        1260.304          32.500    25675543.464                         941.014          33.300  
E25                                                                  25153648.264                       -1432.300          28.900    25151731.092                       -1069.920          31.300  
E36                                                                                                                                  25923708.063                       -1736.242          25.800  
G02  20989253.415                        -766.567          37.000  
G05  23486699.369                        3245.178          31.200  
G06  21807667.938                       -2719.150          26.400  
G13  24669948.723                        -754.452          31.600  
G14  23052297.999                       -2090.210          33.600    23049944.328                       -1560.959          35.800  
G20  21470219.149                        2311.503          32.300  
G24  22388602.166                         259.486          33.000    22386249.694                         193.756          31.400  
J02  37463729.472                         420.263          30.100    37461369.506                         313.962          28.500  
R09  23104843.822                       -4105.140          29.400  
R10  19720967.031                       -1927.612          34.500  
R21  21459473.388                       -2191.650          28.700  
R22  21341827.633                        -259.400          24.200  
> 2022  2 19 13  0 13.4438557  0 33
C02  35904178.556                           6.800          33.700  
C05  36416966.060                          -7.250          33.100  
C06  40684806.696                        -361.000          23.400  
C08  36478791.060                        -522.600          28.600  
C09  39780371.823                        -859.150          22.400  
C10  36619462.975                         717.500          24.100  
C11  26107777.064                         900.350          26.500  
C12  23324808.173                        -347.947          30.400  
C13  36164463.464                        -267.482          35.100  
C16  40703979.323                        -347.300          26.200  
C21  25245743.937                        2027.136          32.300  
C22  24818519.898                        1131.419          29.900  
C24  23119413.165                        1588.879          33.100  
C26  21582453.979                       -1124.732          39.100  
C34  24912664.023                         538.946          33.400  
E02                                                                  23394527.007                         839.928          34.500    23392609.535                         627.196          35.500  
E03                                                                  27860540.051                         271.500          25.600    27858632.172                         203.206          32.300  
E15                                                                  25677213.337                        1262.272          31.700    25675302.459                         942.638          32.700  
E25                                                                  25153912.710                       -1430.450          28.800    25152003.332                       -1068.267          32.200  
E36                                                                                                                                  25924154.183                       -1734.608          25.100  
G02  20989400.042                        -764.639          37.000  
G05  23486071.932                        3247.617          30.500  
G06  21808201.298                       -2718.300          27.300  
G12  23706400.202                        3055.400          22.300  
G13  24670090.553                        -751.692          32.700  
G14  23052685.359                       -2088.326          33.000    23050342.781                       -1559.516          34.800  
G20  21469789.276                        2313.536          32.500  
G24  22388557.226                         261.386          34.000    22386200.857                         195.134          32.800  
J02  37463645.859                         422.578          31.200    37461289.191                         315.641          28.400  
R09  23105604.125                       -4102.750          28.700  
R10  19721333.406                       -1925.906          34.900  
R21  21459890.728                       -2188.286          29.600  
R22  21341859.140                        -256.950          24.900  
> 2022  2 19 13  0 14.4438557  0 22
C21  25245353.789                        2028.545          32.100  
C22  24816421.232                        1132.379          31.400  
C24  23117223.363                        1589.707          31.500  
C26  21580786.116                       -1124.026          35.600  
C34  24910680.178                         540.013          26.800  
E02                                                                  23394367.400                         840.696          34.600    23392449.328                         627.793          34.800  
E03                                                                  27860484.171                         273.500          26.100    27858578.691                         204.291          32.200  
E15                                                                  25676971.586                        1263.197          30.800    25675062.208                         943.241          33.100  
E25                                                                  25154192.298                       -1429.641          30.300    25152274.826                       -1067.757          31.400  
E36                                                                  25926497.842                       -2322.150          21.100    25924595.359                       -1733.629          24.800  
G02  20989544.124                        -763.965          37.100  
G05  23485459.338                        3248.627          30.500  
G06  21808694.338                       -2716.150          26.900  
G13  24670234.635                        -750.413          33.300  
G14  23053087.263                       -2087.703          31.700    23050739.289                       -1558.884          34.900  
G20  21469342.767                        2314.351          32.600  
G24  22388508.242                         261.990          33.600    22386150.674                         195.680          32.600  
J02  37463564.497                         423.505          31.600    37461209.628                         316.336          29.200  
R09  23106409.549                       -4102.014          29.300  
R10  19721693.639                       -1925.540          34.700  
R21  21460289.934                       -2186.400          28.900  
R22  21341920.479                        -258.100          24.300  
> 2022  2 19 13  0 15.4438557  0 30
C02  35904181.980                          -2.350          32.400  
C05  36416968.585                           7.050          33.800  
C06  40684945.326                        -366.500          23.400  
C08  36478997.143                        -525.050          28.200  
C11  26107415.340                         899.050          26.500  
C12  23324943.505                        -350.291          32.200  
C13  36164569.717                        -269.998          35.400  
C16  40704121.251                        -352.900          25.600  
C21  25244964.602                        2025.598          32.800  
C22  24818085.025                        1128.902          30.900  
C24  23118800.515                        1585.818          35.000  
C26  21581002.511                       -1127.727          35.500  
C34  24910579.093                         536.478          27.000  
E02                                                                  23394201.859                         836.979          33.800    23392289.183                         625.035          34.300  
E03                                                                  27860439.147                         270.300          25.700    27858527.670                         202.145          31.200  
E15                                                                  25676732.895                        1259.634          30.800    25674822.618                         940.476          32.600  
E25                                                                  25154462.356                       -1433.850          29.000    25152547.581                       -1070.557          31.000  
E36                                                                                                                                  25925038.397                       -1735.100          23.200  
G02  20989691.267                        -767.762          37.600  
G05  23484845.008                        3245.271          30.700  
G06  21809224.616                       -2721.800          26.900  
G13  24670369.486                        -753.486          31.900  
G14  23053485.931                       -2091.365          33.000    23051137.357                       -1561.705          35.800  
G20  21468895.720                        2310.792          32.000  
G24  22388455.123                         258.128          32.100    22386101.752                         192.854          33.400  
J02  37463490.393                         420.011          30.500    37461130.127                         313.698          29.000  
R09  23107174.264                       -4105.555          29.500  
R10  19722064.127                       -1929.598          35.100  
R21  21460711.986                       -2191.900          28.100  
R22  21342002.267                        -266.800          23.200  
> 2022  2 19 13  0 16.4438557  0 33
C02  35904181.630                         -12.300          32.600  
C05  36416964.638                          -2.150          34.500  
C06  40685021.124                        -362.300          26.000  
C08  36479099.023                        -524.100          27.900  
C09  39780877.949                        -848.550          22.100  
C10  36619047.539                         717.300          26.100  
C11  26107228.220                         899.900          27.400  
C12  23325008.511                        -351.660          31.900  
C13  36164620.033                        -271.454          35.500  
C16  40704172.466                        -353.050          26.700  
C21  25244575.422                        2024.394          33.100  
C22  24817865.827                        1127.453          32.200  
C24  23118499.174                        1584.200          34.100  
C26  21583100.409                       -1129.637          40.100  
C34  24912352.016                         535.212          35.100  
E02                                                                  23394045.917                         835.469          34.700    23392130.243                         623.927          34.700  
E03                                                                  27860387.833                         269.100          26.000    27858475.157                         201.368          32.600  
E05                                                                  28043502.266                         735.950          20.800  
E15                                                                  25676497.809                        1257.903          31.900    25674582.734                         939.427          33.300  
E25                                                                  25154738.415                       -1435.150          28.700    25152820.643                       -1071.838          29.700  
E36                                                                                                                                  25925477.843                       -1737.100          26.500  
G02  20989836.017                        -769.393          36.700  
G05  23484222.289                        3244.174          31.700  
G06  21809735.113                       -2722.163          28.700  
G13  24670511.239                        -754.317          31.900  
G14  23053886.704                       -2093.009          33.700    23051534.833                       -1562.900          36.200  
G20  21468465.169                        2309.187          33.500  
G24  22388396.614                         256.412          32.600    22386051.637                         191.539          33.400  
J02  37463398.907                         418.529          30.200    37461049.733                         312.721          28.900  
R09  23107939.285                       -4106.150          28.900  
R10  19722429.824                       -1931.744          34.300  
R21  21461092.073                       -2193.450          27.800  
R22  21341969.240                        -265.900          22.200  
> 2022  2 19 13  0 17.4438557  0 32
C02  35904185.810                         -16.150          33.600  
C05  36416961.023                           1.500          34.300  
C06  40685095.755                        -363.500          25.300  
C08  36479194.040                        -528.300          26.900  
C09  39781032.924                        -856.650          22.600  
C10  36618896.726                         720.500          24.800  
C11  26107055.222                         894.400          26.700  
C12  23325081.343                        -352.426          31.000  
C13  36164671.879                        -272.314          35.200  
C16  40704251.893                        -349.550          25.500  
C21  25246068.671                        2023.814          30.900  
C22  24815771.759                        1126.514          32.200  
C24  23116309.472                        1583.031          31.700  
C26  21581436.843                       -1130.857          35.500  
C34  24912252.467                         534.214          33.200  
E02                                                                  23393887.609                         834.235          34.200    23391972.535                         622.984          34.800  
E03                                                                  27860327.857                         269.100          28.200    27858424.175                         200.982          32.100  
E15                                                                  25676254.060                        1256.970          32.100    25674343.782                         938.456          33.200  
E25                                                                  25155007.311                       -1436.550          28.600    25153093.736                       -1072.516          31.700  
E36                                                                                                                                  25925922.418                       -1737.665          26.100  
G02  20989984.397                        -770.622          37.100  
G05  23483617.590                        3243.309          31.200  
G06  21810251.637                       -2723.055          28.900  
G13  24670667.113                        -754.918          32.900  
G14  23054288.109                       -2094.164          33.300    23051933.239                       -1563.909          35.500  
G20  21468031.651                        2308.194          32.900  
G24  22388357.923                         255.171          32.900    22386004.252                         190.468          32.900  
J02  37463323.041                         417.609          30.800    37460969.371                         311.942          28.900  
R09  23108692.945                       -4108.203          29.700  
R10  19722777.865                       -1933.206          35.000  
R21  21461534.549                       -2193.100          28.300  
R22  21342022.286                        -263.700          23.700  
> 2022  2 19 13  0 18.4438557  0 22
C21  25243799.019                        2022.793          32.200  
C22  24815555.086                        1125.219          31.600  
C24  23116006.159                        1581.236          32.300  
C26  21581653.669                       -1132.371          36.400  
C34  24910269.716                         532.974          30.300  
E02                                                                  23393729.995                         832.835          34.200    23391813.421                         621.888          35.200  
E03                                                                  27860278.168                         267.850          26.500    27858373.586                         200.471          32.100  
E15                                                                  25676017.900                        1255.355          31.800    25674104.924                         937.463          33.900  
E25                                                                  25155276.002                       -1437.850          28.600    25153368.123                       -1073.656          31.800  
E36                                                                                                                                  25926365.288                       -1738.503          25.400  
G02  20990136.468                        -772.291          38.000  
G05  23482996.797                        3242.185          31.100  
