     3.03           OBSERVATION DATA    M: Mixed            RINEX VERSION / TYPE
Geo++ RINEX Logger  Geo++               20220215 005942 UTC PGM / RUN BY / DATE
************************************************************COMMENT
This file was generated by the Geo++ RINEX Logger App       COMMENT
for Android devices (Version 2.1.6). If you encounter       COMMENT
any issues, please send an email to android@geopp.de        COMMENT
Filtering Mode: BEST                                        COMMENT
************************************************************COMMENT
geo                                                         MARKER NAME
GEODETIC                                                    MARKER TYPE
Geo++               Geo++                                   OBSERVER / AGENCY
unknown             OnePlus             IN2011              REC # / TYPE / VERS
unknown             IN2011                                  ANT # / TYPE
  1501561.3198  6066661.0338  1272407.1780                  APPROX POSITION XYZ
        0.0000        0.0000        0.0000                  ANTENNA: DELTA H/E/N
G    8 C1C L1C D1C S1C C5Q L5Q D5Q S5Q                      SYS / # / OBS TYPES
R    4 C1C L1C D1C S1C                                      SYS / # / OBS TYPES
E   12 C1B L1B D1B S1B C1C L1C D1C S1C C5Q L5Q D5Q S5Q      SYS / # / OBS TYPES
C    4 C2I L2I D2I S2I                                      SYS / # / OBS TYPES
J    8 C1C L1C D1C S1C C5Q L5Q D5Q S5Q                      SYS / # / OBS TYPES
  2022     2    15     1     0    0.4365794     GPS         TIME OF FIRST OBS
 24 R01  1 R02 -4 R03  5 R04  6 R05  1 R06 -4 R07  5 R08  6 GLONASS SLOT / FRQ #
    R09 -2 R10 -5 R11  0 R12 -1 R13 -2 R14 -7 R15  0 R16 -1 GLONASS SLOT / FRQ #
    R17  4 R18 -3 R19  3 R20  2 R21  4 R22 -3 R23  3 R24  2 GLONASS SLOT / FRQ #
G L1C                                                       SYS / PHASE SHIFT
G L5Q -0.25000                                              SYS / PHASE SHIFT
R L1C                                                       SYS / PHASE SHIFT
E L1B                                                       SYS / PHASE SHIFT
E L1C +0.50000                                              SYS / PHASE SHIFT
E L5Q -0.25000                                              SYS / PHASE SHIFT
C L2I                                                       SYS / PHASE SHIFT
J L1C                                                       SYS / PHASE SHIFT
J L5Q -0.25000                                              SYS / PHASE SHIFT
 C1C    0.000 C1P    0.000 C2C    0.000 C2P    0.000        GLONASS COD/PHS/BIS
                                                            END OF HEADER
> 2022  2 15  1  0  0.4365794  0 34
C02  35924626.923                          29.750          41.800  
C03  36996749.208                          19.410          43.300  
C05  36417366.706                          24.300          39.700  
C07  38357443.919                        1321.828          29.500  
C08  37589189.171                       -1111.113          31.300  
C09  38012332.135                        -624.324          34.700  
C13  36666570.386                        -892.813          34.400  
C14  23615621.670                        1616.550          28.700  
C16  38593501.400                        -465.550          24.600  
C21  24648170.451                        -468.998          40.400  
C24  21884178.723                         687.146          48.300  
C25  24939109.738                        2998.192          24.000  
C26  22812165.591                       -1993.448          30.800  
C33  25584629.155                        1910.475          38.000  
C34  25333490.914                       -1710.526          31.800  
E03                                                                  28411165.084                         637.400          20.900  
E05                                                                  25698267.884                         301.400          26.800    25696359.106                         225.029          37.200  
E09                                                                  24254257.851                        -227.609          31.700    24252328.987                        -170.187          29.600  
E24                                                                  24768448.385                         958.710          43.100    24766528.814                         716.043          43.900  
E25                                                                  26104441.696                        2619.504          32.100    26102520.326                        1956.197          33.500  
E31                                                                  26610145.404                       -1127.831          29.300    26608226.733                        -842.069          36.100  
E36                                                                  24613773.164                       -1579.010          30.200    24611852.394                       -1179.140          36.000  
G01  22786193.072                        1636.645          31.300    22783822.613                        1221.931          30.300  
G10  22235014.145                       -1441.842          36.400    22232650.581                       -1076.685          37.300  
G21  22260121.164                         638.603          30.900  
G22  22894207.695                        -770.550          28.500  
G26  21452118.432                        1953.021          34.800    21449754.868                        1458.506          37.400  
G31  20707843.783                       -2063.150          24.900  
G32  23319231.557                        -813.997          33.200    23316873.089                        -607.852          32.200  
J01  40404630.981                        1579.988          33.300    40402266.218                        1179.839          32.100  
J02  41441212.870                        -571.291          30.900    41438853.204                        -426.461          34.700  
J04  37863291.513                        1248.329          35.300    37860934.845                         932.286          41.300  
R07  22505784.894                        1612.916          33.000  
R09  19518830.619                        -263.848          42.400  
> 2022  2 15  1  0  1.4365794  0 35
C02  35924621.127                           5.680          41.700  
C03  36996747.610                           0.134          43.400  
C05  36417363.909                          -3.180          39.800  
C07  38357180.601                        1299.700          28.000  
C08  37589403.423                       -1129.757          31.700  
C09  38012454.051                        -644.175          34.600  
C10  38261019.772                        1181.050          27.000  
C13  36666741.468                        -912.679          34.000  
C14  23615310.985                        1595.850          29.300  
C16  38593581.345                        -468.450          23.500  
C21  24648262.688                        -488.474          39.500  
C24  21884044.916                         666.045          48.000  
C25  24938537.035                        2971.122          22.000  
C26  22814441.516                       -2014.316          33.200  
C33  25584263.008                        1890.833          37.500  
C34  25333826.582                       -1728.300          30.900  
E05                                                                  25698216.820                         277.350          26.000    25696303.544                         210.014          35.800  
E09                                                                  24254299.123                        -246.777          30.100    24252372.957                        -188.250          27.900  
E24                                                                  24768268.410                         938.381          41.500    24766348.239                         700.699          42.700  
E25                                                                  26103943.341                        2599.694          30.200    26102024.969                        1941.062          32.100  
E31                                                                  26610367.151                       -1153.650          28.100    26608442.783                        -857.592          34.900  
E36                                                                  24614070.459                       -1600.028          29.900    24612155.085                       -1194.383          35.000  
G01  22785885.385                        1613.300          31.300    22783513.727                        1203.500          29.500  
G10  22235288.655                       -1463.112          35.900    22232926.890                       -1092.333          36.200  
G21  22259993.352                         616.250          29.900  
G22  22894356.892                        -791.100          27.300  
G26  21451739.095                        1932.528          34.900    21449384.825                        1443.000          36.000  
G31  20708209.130                       -2085.550          24.000  
G32  23319394.544                        -833.723          32.900    23317029.182                        -623.297          31.900  
J01  40404336.485                        1559.150          33.200    40401967.525                        1164.363          31.500  
J02  41441320.696                        -593.000          30.300    41438964.327                        -441.427          33.500  
J04  37863061.473                        1228.212          35.200    37860699.108                         916.555          40.200  
R06  21828817.449                         641.750          11.400  
R07  22505492.497                        1592.509          32.600  
R09  19518883.883                        -285.024          41.800  
> 2022  2 15  1  0  2.4365794  0 35
C01  40365251.301                          -6.100          28.800  
C02  35924620.486                           4.150          41.800  
C03  36996745.169                          -5.868          43.700  
C05  36417367.165                          -7.244          39.800  
C07  38356941.925                        1297.500          28.500  
C08  37589629.724                       -1136.143          31.600  
C09  38012579.322                        -649.208          35.300  
C10  38260789.790                        1182.050          27.600  
C13  36666916.805                        -918.165          34.700  
C14  23615002.757                        1591.849          29.600  
C16  38593674.838                        -475.400          24.000  
C21  24648356.181                        -494.288          40.900  
C24  21882025.772                         661.176          31.400  
C25  24937963.191                        2973.043          24.100  
C26  22812936.216                       -2019.040          30.400  
C33  25583901.717                        1885.759          37.900  
C34  25334150.915                       -1735.101          31.200  
E05                                                                  25698162.216                         276.300          26.600    25696250.139                         206.322          37.200  
E09                                                                  24254347.348                        -252.434          32.100    24252420.282                        -188.558          29.200  
E24                                                                  24768089.692                         932.927          43.500    24766169.521                         696.593          44.100  
E25                                                                  26103449.841                        2594.546          31.900    26101528.471                        1937.485          33.700  
E31                                                                  26610584.159                       -1153.608          29.300    26608661.590                        -861.489          36.300  
E36                                                                  24614375.606                       -1604.844          31.400    24612459.032                       -1198.463          36.300  
G01  22785561.567                        1610.591          32.000    22783205.198                        1202.657          30.400  
G10  22235562.324                       -1468.005          36.300    22233205.655                       -1096.322          37.600  
G21  22259879.989                         612.471          29.900  
G22  22894518.138                        -794.849          28.700  
G26  21451367.011                        1927.151          35.100    21449017.238                        1439.048          37.800  
G31  20708618.905                       -2090.700          23.200  
G32  23319555.191                        -839.056          33.600    23317188.030                        -626.487          32.200  
J01  40404032.454                        1554.797          33.100    40401672.487                        1161.200          32.500  
J02  41441437.573                        -596.598          31.400    41439076.408                        -445.459          35.000  
J04  37862821.897                        1222.909          36.000    37860465.528                         913.244          41.600  
R07  22505201.356                        1587.770          33.300  
R09  19518945.898                        -291.246          42.500  
> 2022  2 15  1  0  3.4365794  0 34
C02  35924619.450                           7.245          41.700  
C03  36996748.330                          -2.630          43.400  
C05  36417367.927                          -6.100          39.600  
C07  38356693.260                        1298.250          28.600  
C08  37589846.337                       -1133.174          31.500  
C09  38012705.698                        -646.022          34.900  
C10  38260563.010                        1187.100          27.300  
C13  36667091.747                        -915.156          34.900  
C14  23614695.633                        1595.017          29.900  
C16  38593770.335                        -476.750          24.000  
C21  24650348.165                        -493.300          28.500  
C24  21881899.123                         663.774          31.600  
C25  24937391.050                        2975.982          24.000  
C26  22813324.310                       -2016.272          30.900  
C33  25583537.332                        1889.090          37.700  
C34  25334483.548                       -1731.766          30.500  
E05                                                                  25698111.114                         279.750          26.800    25696197.239                         208.865          37.600  
E09                                                                  24254393.079                        -249.085          32.100    24252469.311                        -186.077          29.300  
E24                                                                  24767911.178                         935.714          43.300    24765991.607                         698.742          44.400  
E25                                                                  26102952.648                        2597.634          33.000    26101035.176                        1939.843          33.500  
E31                                                                  26610798.374                       -1150.750          29.200    26608881.501                        -859.359          36.100  
E36                                                                  24614684.555                       -1601.796          31.200    24612764.384                       -1196.186          36.800  
G01  22785260.738                        1613.079          32.000    22782900.173                        1204.516          30.700  
G10  22235847.889                       -1465.326          35.500    22233484.925                       -1094.217          38.000  
G21  22259765.032                         615.242          29.900  
G22  22894668.197                        -791.100          27.900  
G26  21450995.131                        1929.945          34.500    21448650.455                        1441.203          37.700  
G31  20709010.297                       -2089.650          23.900  
G32  23319716.343                        -835.761          32.600    23317347.083                        -624.106          32.500  
J01  40403740.019                        1557.987          33.200    40401376.156                        1163.466          32.900  
J02  41441554.355                        -593.292          30.900    41439189.592                        -443.038          35.300  
J04  37862594.218                        1226.043          35.300    37860232.753                         915.605          41.800  
R07  22504904.725                        1591.116          32.600  
R09  19519001.523                        -288.871          42.700  
> 2022  2 15  1  0  4.4365794  0 34
C02  35924617.202                           6.488          42.000  
C03  36996747.282                          -3.459          43.500  
C05  36417367.778                          -8.450          39.800  
C07  38356446.682                        1296.900          28.800  
C08  37590059.940                       -1134.217          31.000  
C09  38012824.267                        -646.832          35.200  
C10  38260332.620                        1179.700          27.000  
C13  36667269.075                        -916.101          34.700  
C14  23614393.293                        1594.288          29.800  
C16  38593864.621                        -478.800          24.100  
C21  24650439.153                        -494.600          28.700  
C24  21881772.162                         662.259          32.200  
C25  24936820.695                        2974.717          24.100  
C26  22813712.992                       -2017.534          30.700  
C33  25583175.333                        1888.294          38.000  
C34  25334813.471                       -1732.631          30.800  
E05                                                                  25698055.504                         279.200          27.200    25696144.926                         208.240          37.700  
E09                                                                  24254438.799                        -249.934          32.600    24252515.930                        -186.745          29.900  
E24                                                                  24767733.252                         934.337          43.500    24765813.981                         697.778          44.400  
E25                                                                  26102462.339                        2596.557          32.900    26100540.969                        1939.086          34.000  
E31                                                                  26611019.172                       -1152.600          28.500    26609100.200                        -860.420          35.900  
E36                                                                  24614987.196                       -1603.183          31.600    24613069.724                       -1197.201          36.600  
G01  22784957.799                        1611.594          32.200    22782591.837                        1203.405          30.400  
G10  22236124.449                       -1466.738          35.700    22233763.583                       -1095.277          37.900  
G21  22259649.762                         613.820          31.200  
G22  22894801.156                        -791.200          28.500  
G26  21450634.032                        1928.613          35.000    21448282.760                        1440.256          37.800  
G31  20709383.689                       -2088.400          24.000  
G32  23319861.593                        -836.572          32.200    23317506.723                        -624.746          33.100  
J01  40403437.979                        1557.090          33.100    40401079.212                        1162.623          32.900  
J02  41441664.230                        -594.313          31.400    41439302.465                        -443.733          34.800  
J04  37862355.134                        1225.091          35.700    37859999.365                         914.830          41.600  
R07  22504607.182                        1590.332          33.900  
R09  19519053.538                        -290.702          42.700  
> 2022  2 15  1  0  5.4365794  0 34
C01  40365261.981                          -5.700          29.100  
C02  35924617.075                           6.873          41.700  
C03  36996749.253                          -3.126          43.700  
C05  36417367.951                          -4.573          39.800  
C07  38356202.224                        1301.550          28.700  
C08  37590278.961                       -1134.033          31.400  
C09  38012951.251                        -646.360          35.100  
C13  36667444.626                        -916.047          34.400  
C14  23614082.281                        1594.780          30.200  
C21  24650544.553                        -492.000          28.400  
C24  21883536.313                         662.163          48.600  
C25  24936250.363                        2974.993          24.400  
C26  22814100.197                       -2017.609          30.800  
C33  25582812.757                        1888.904          38.100  
C34  25335147.912                       -1731.927          31.000  
E05                                                                  25698002.013                         279.050          27.000    25696091.736                         208.654          37.600  
E09                                                                  24254485.439                        -249.384          32.200    24252563.769                        -186.244          29.700  
E24                                                                  24767555.648                         934.439          43.800    24765636.077                         697.808          44.500  
E25                                                                  26101969.952                        2597.000          32.600    26100047.683                        1939.433          34.000  
E31                                                                  26611245.088                       -1151.750          28.200    26609319.821                        -860.377          36.000  
E36                                                                  24615291.059                       -1603.041          31.500    24613374.785                       -1197.090          36.300  
G01  22784641.691                        1611.436          32.200    22782287.720                        1203.346          30.900  
G10  22236395.933                       -1466.860          35.600    22234042.563                       -1095.377          37.600  
G21  22259542.010                         613.811          30.700  
G22  22894939.233                        -791.600          28.200  
G26  21450268.458                        1928.658          34.400    21447915.687                        1440.285          37.800  
G31  20709819.460                       -2090.800          23.700  
G32  23320024.553                        -836.118          32.200    23317665.786                        -624.272          32.100  
J01  40403144.055                        1557.535          32.900    40400783.789                        1163.150          32.700  
J02  41441780.422                        -593.939          30.900    41439416.859                        -443.549          35.100  
J04  37862130.762                        1225.382          35.500    37859766.599                         915.038          41.900  
R07  22504297.069                        1591.018          33.500  
R09  19519112.170                        -291.123          43.000  
R22  22294059.514                        -715.950          11.300  
> 2022  2 15  1  0  6.4365794  0 33
C02  35924616.209                          13.450          41.600  
C03  36996748.388                          -2.861          43.300  
C05  36417372.481                          -0.400          40.000  
C07  38355939.639                        1298.050          28.600  
C08  37590494.846                       -1133.946          31.200  
C09  38013074.500                        -646.019          35.300  
C13  36667620.039                        -915.961          34.700  
C14  23613775.927                        1595.095          30.000  
C16  38594048.600                        -482.500          24.900  
C21  24650626.430                        -492.050          28.400  
C24  21881516.945                         661.882          32.200  
C25  24935678.992                        2975.188          24.600  
C26  22814486.663                       -2017.764          30.200  
C33  25582448.843                        1889.312          37.800  
C34  25335479.816                       -1731.435          30.900  
E05                                                                  25697947.785                         279.800          26.600    25696037.807                         208.932          37.900  
E09                                                                  24254531.341                        -249.004          32.500    24252609.971                        -185.977          29.700  
E24                                                                  24767377.905                         934.331          43.700    24765458.034                         697.686          44.300  
E25                                                                  26101472.630                        2597.349          32.900    26099553.059                        1939.528          33.300  
E31                                                                  26611466.069                       -1152.325          29.300    26609538.703                        -860.482          36.200  
E36                                                                  24615594.782                       -1603.074          31.700    24613679.408                       -1197.081          36.900  
G01  22784340.433                        1611.171          32.300    22781979.268                        1203.307          30.200  
G10  22236675.074                       -1467.001          35.700    22234321.703                       -1095.535          37.800  
G21  22259410.734                         613.550          30.400  
G22  22895110.149                        -791.350          28.400  
G26  21449906.043                        1928.683          35.300    21447549.074                        1440.183          37.700  
G31  20710213.421                       -2085.650          25.300  
G32  23320182.877                        -835.759          31.400    23317824.110                        -624.035          32.200  
J01  40402842.798                        1557.764          33.300    40400486.129                        1163.329          32.800  
J02  41441891.979                        -593.671          31.300    41439528.715                        -443.312          35.400  
J04  37861889.463                        1225.579          35.800    37859533.094                         915.211          41.800  
R07  22503995.512                        1591.548          33.300  
R09  19519162.868                        -291.722          43.000  
> 2022  2 15  1  0  7.4365794  0 33
C02  35924613.348                           7.669          41.800  
C03  36996749.724                          -2.413          43.600  
C05  36417369.021                          -3.804          39.500  
C07  38355691.548                        1300.650          28.800  
C08  37590714.730                       -1133.532          31.700  
C09  38013196.652                        -645.450          34.800  
C13  36667796.154                        -915.457          35.000  
C14  23613476.271                        1595.719          30.100  
C16  38594143.771                        -484.750          24.400  
C21  24650723.400                        -490.200          28.400  
C24  21883283.159                         661.938          48.400  
C25  24935105.926                        2975.036          23.300  
C26  22816761.925                       -2017.440          32.700  
C33  25582085.931                        1890.036          38.000  
C34  25335815.720                       -1730.667          31.300  
E05                                                                  25697898.756                         280.600          28.200    25695984.881                         209.427          37.600  
E09                                                                  24254581.843                        -248.418          32.400    24252656.876                        -185.483          29.200  
E24                                                                  24767200.265                         934.547          43.500    24765280.094                         697.851          44.400  
E25                                                                  26100981.407                        2597.788          32.600    26099058.838                        1939.949          34.300  
E31                                                                  26611683.556                       -1152.050          29.100    26609757.989                        -860.355          35.800  
E36                                                                  24615901.307                       -1602.756          31.200    24613984.734                       -1196.916          36.600  
G01  22784031.484                        1611.247          32.200    22781673.316                        1203.205          30.900  
G10  22236955.517                       -1466.963          35.400    22234600.947                       -1095.442          38.000  
G21  22259290.355                         613.660          30.800  
G22  22895273.972                        -790.774          29.600  
G26  21449545.230                        1928.884          34.800    21447181.966                        1440.323          38.000  
G31  20710610.184                       -2086.600          24.300  
G32  23320325.415                        -834.983          31.800    23317984.636                        -623.523          32.500  
J01  40402557.832                        1558.349          33.500    40400190.671                        1163.714          32.600  
J02  41441998.542                        -593.213          31.200    41439641.574                        -443.026          34.600  
J04  37861659.359                        1226.040          35.700    37859299.693                         915.569          41.600  
R07  22503706.949                        1592.282          33.800  
R09  19519214.270                        -292.026          42.900  
> 2022  2 15  1  0  8.4365794  0 35
C01  40365268.469                          -9.650          29.000  
C02  35924610.672                           9.592          41.700  
C03  36996749.146                          -0.278          43.600  
C05  36417370.841                           2.250          39.700  
C07  38355441.543                        1301.450          29.100  
C08  37590929.104                       -1131.543          31.200  
C09  38013324.386                        -643.223          35.100  
C10  38259428.511                        1181.900          26.700  
C13  36667970.954                        -913.582          34.700  
C14  23613168.406                        1597.758          29.400  
C16  38594239.726                        -480.800          24.500  
C21  24648923.468                        -489.935          41.000  
C24  21883157.568                         663.519          48.400  
C25  24934536.042                        2977.414          24.100  
C26  22817146.281                       -2015.717          32.700  
C33  25581724.403                        1892.265          38.300  
C34  25336143.415                       -1728.447          31.100  
E05                                                                  25697844.215                         282.900          28.100    25695931.839                         211.093          37.400  
E09                                                                  24254628.333                        -246.139          32.600    24252704.864                        -183.814          29.900  
E24                                                                  24767021.610                         936.286          43.400    24765102.339                         699.178          44.400  
E25                                                                  26100485.273                        2599.857          32.900    26098564.502                        1941.536          34.000  
E31                                                                  26611899.428                       -1150.534          29.300    26609977.159                        -859.096          36.200  
E36                                                                  24616204.119                       -1600.793          31.700    24614289.644                       -1195.567          36.800  
G01  22783734.711                        1612.827          32.200    22781366.950                        1204.463          30.700  
G10  22237237.643                       -1465.264          35.300    22234880.075                       -1094.280          37.700  
G21  22259182.451                         615.376          31.200  
G22  22895432.884                        -788.368          29.500  
G26  21449171.410                        1930.640          35.200    21446815.041                        1441.685          37.500  
G31  20710999.936                       -2088.700          25.300  
G32  23320497.218                        -832.848          32.600    23318142.648                        -621.888          31.900  
J01  40402256.263                        1560.509          33.400    40399892.999                        1165.289          33.100  
J02  41442113.684                        -591.011          31.100    41439754.917                        -441.375          35.100  
J04  37861423.444                        1228.140          36.300    37859066.476                         917.110          41.900  
R07  22503416.172                        1594.714          33.600  
R09  19519272.152                        -290.728          42.700  
> 2022  2 15  1  0  9.4365794  0 34
C02  35924610.108                           8.250          41.800  
C03  36996750.980                           0.201          43.400  
C05  36417371.776                          11.700          39.800  
C07  38355196.048                        1303.650          28.600  
C08  37591147.688                       -1131.285          31.000  
C09  38013446.137                        -642.729          35.000  
C10  38259196.508                        1187.950          27.300  
C13  36668147.868                        -913.387          34.800  
C14  23612859.955                        1596.750          27.900  
C16  38594326.402                        -480.800          24.300  
C21  24649017.938                        -489.681          40.900  
C24  21881137.002                         663.493          32.200  
C25  24933964.674                        2977.686          24.600  
C26  22817539.344                       -2015.747          32.300  
C33  25581362.290                        1892.812          38.400  
C34  25336477.720                       -1727.875          31.200  
E05                                                                  25697784.592                         282.750          27.900    25695877.612                         211.564          37.700  
E09                                                                  24254676.635                        -245.602          32.600    24252751.668                        -183.324          29.100  
E24                                                                  24766844.169                         936.369          43.900    24764924.598                         699.243          44.400  
E25                                                                  26099990.051                        2600.273          32.900    26098069.880                        1941.931          33.700  
E31                                                                  26612123.109                       -1149.850          28.900    26610196.642                        -859.088          36.100  
E36                                                                  24616512.042                       -1600.728          30.900    24614593.670                       -1195.380          36.400  
G01  22783430.457                        1612.697          32.600    22781059.999                        1204.275          30.300  
G10  22237517.385                       -1465.358          35.200    22235159.218                       -1094.250          37.700  
G21  22259063.169                         615.312          31.100  
G22  22895575.321                        -787.926          29.700  
G26  21448809.896                        1930.667          35.200    21446448.131                        1441.783          37.900  
G31  20711413.985                       -2087.900          24.600  
G32  23320656.144                        -832.248          32.900    23318301.274                        -621.586          32.400  
J01  40401966.998                        1560.960          33.400    40399596.839                        1165.717          33.100  
J02  41442224.043                        -590.645          30.900    41439867.075                        -441.079          34.900  
J04  37861189.642                        1228.540          35.400    37858832.973                         917.359          41.700  
R07  22503118.214                        1595.364          33.300  
R09  19519328.548                        -291.168          42.600  
> 2022  2 15  1  0 10.4365794  0 36
C02  35924607.972                           8.923          41.600  
C03  36996750.043                          -1.027          43.400  
C05  36417371.739                          -2.527          39.600  
C07  38354947.183                        1301.500          28.600  
C08  37591369.497                       -1132.668          31.700  
C09  38013567.515                        -643.906          35.600  
C10  38258969.227                        1187.650          27.800  
C13  36668324.408                        -914.764          35.000  
C14  23612559.226                        1597.400          29.100  
C16  38594409.707                        -482.050          24.500  
C21  24651004.925                        -489.050          28.400  
C24  21882900.644                         661.616          48.700  
C25  24933393.231                        2976.105          25.300  
C26  22817926.938                       -2017.391          33.000  
C33  25581001.302                        1891.760          38.500  
C34  25336809.252                       -1728.856          30.300  
E03                                                                  28409983.538                         617.250          21.000  
E05                                                                  25697729.393                         282.650          28.300    25695823.612                         210.697          37.600  
E09                                                                  24254723.665                        -246.645          32.200    24252798.997                        -184.197          29.300  
E24                                                                  24766666.054                         934.699          43.600    24764746.183                         698.037          44.400  
E25                                                                  26099494.157                        2598.940          32.700    26097574.286                        1940.746          34.100  
E31                                                                  26612340.121                       -1152.024          29.300    26610414.854                        -860.225          36.200  
E36                                                                  24616811.796                       -1602.327          31.800    24614899.120                       -1196.580          36.700  
G01  22783115.937                        1610.778          33.000    22780752.973                        1202.850          30.000  
G10  22237792.857                       -1467.175          35.200    22235437.987                       -1095.596          37.500  
G21  22258958.204                         613.568          32.100  
G22  22895738.371                        -789.065          30.400  
G26  21448441.114                        1929.053          35.500    21446079.648                        1440.485          37.700  
G31  20711807.574                       -2087.550          26.600  
G32  23320814.397                        -833.385          32.800    23318458.927                        -622.334          32.200  
J01  40401657.275                        1559.695          33.300    40399299.108                        1164.669          33.000  
J02  41442338.227                        -592.055          31.500    41439979.160                        -442.060          35.200  
J04  37860959.364                        1227.133          35.900    37858598.798                         916.367          41.900  
R07  22502814.486                        1594.198          33.000  
R09  19519379.775                        -293.341          42.800  
R10  20497795.332                        3257.642          11.200  
> 2022  2 15  1  0 11.4365794  0 35
C01  40365272.415                         -12.550          28.500  
C02  35924607.424                           7.725          41.600  
C03  36996750.694                          -2.176          43.900  
C05  36417372.989                          -3.716          39.600  
C07  38354685.516                        1300.350          28.500  
C08  37591581.202                       -1133.853          31.700  
C09  38013695.578                        -644.954          35.200  
C10  38258757.026                        1183.150          27.200  
C13  36668497.439                        -915.976          34.900  
C14  23612243.896                        1596.000          28.300  
C21  24649206.222                        -492.503          40.900  
C24  21880881.893                         659.843          32.000  
C25  24932820.080                        2974.723          24.800  
C26  22818310.724                       -2018.861          32.400  
C33  25580635.606                        1890.824          38.500  
C34  25337137.277                       -1729.871          30.700  
E03                                                                  28409863.673                         616.600          21.000  
E05                                                                  25697682.377                         280.550          27.600    25695769.401                         209.980          37.300  
E09                                                                  24254767.186                        -247.637          32.100    24252846.416                        -185.022          29.300  
E24                                                                  24766488.928                         933.257          43.500    24764568.758                         696.878          44.400  
E25                                                                  26098999.251                        2597.830          33.400    26097080.279                        1939.935          34.100  
E31                                                                  26612553.624                       -1153.533          29.400    26610634.053                        -861.277          36.000  
E36                                                                  24617117.336                       -1603.758          32.700    24615204.660                       -1197.653          36.900  
G01  22782817.995                        1609.196          32.900    22780446.637                        1201.769          29.800  
G10  22238072.914                       -1468.658          34.700    22235717.445                       -1096.775          37.700  
G21  22258844.035                         611.956          32.200  
G22  22895884.721                        -790.065          30.500  
G26  21448070.921                        1927.602          35.500    21445713.354                        1439.485          37.900  
G31  20712231.832                       -2092.150          27.000  
G32  23320979.334                        -834.395          33.800    23318617.569                        -623.172          32.500  
J01  40401356.035                        1558.613          33.300    40399003.864                        1163.823          33.100  
J02  41442459.394                        -593.186          31.500    41440092.833                        -442.933          35.200  
J04  37860719.281                        1225.908          35.800    37858365.911                         915.492          42.000  
R07  22502530.934                        1593.312          33.200  
R09  19519431.391                        -295.325          43.000  
> 2022  2 15  1  0 12.4365794  0 35
C02  35924604.604                           3.450          41.900  
C03  36996750.573                          -1.798          43.500  
C05  36417374.367                          -2.800          39.400  
C07  38354445.561                        1301.150          28.900  
C08  37591798.730                       -1133.639          31.300  
C09  38013819.571                        -644.346          35.000  
C10  38258526.664                        1183.750          28.000  
C13  36668670.898                        -915.741          35.000  
C14  23611930.791                        1597.800          28.400  
C21  24651200.320                        -492.300          27.300  
C24  21880755.559                         660.013          31.900  
C25  24932252.751                        2974.837          25.000  
C26  22818701.832                       -2018.815          32.700  
C33  25580275.435                        1891.421          38.600  
C34  25337472.623                       -1729.249          30.600  
E03                                                                  28409743.035                         617.800          20.500  
E05                                                                  25697624.695                         281.650          28.000    25695716.516                         210.323          37.500  
E09                                                                  24254815.931                        -247.176          31.900    24252892.463                        -184.753          29.200  
E24                                                                  24766310.731                         933.310          43.600    24764391.159                         696.952          44.400  
E25                                                                  26098507.470                        2598.285          33.100    26096584.901                        1940.252          34.000  
E31                                                                  26612776.249                       -1153.350          28.800    26610854.280                        -861.361          36.000  
E36                                                                  24617423.603                       -1603.680          31.700    24615509.128                       -1197.506          36.600  
G01  22782500.094                        1609.117          33.400    22780139.828                        1201.576          29.900  
G10  22238343.506                       -1468.765          34.400    22235997.330                       -1096.807          38.100  
G21  22258721.598                         611.964          31.900  
G22  22896021.605                        -789.388          29.600  
G26  21447697.858                        1927.717          35.500    21445346.586                        1439.512          37.500  
G31  20712627.437                       -2090.850          26.000  
G32  23321140.201                        -833.782          33.400    23318776.038                        -622.699          31.700  
J01  40401065.415                        1559.087          33.200    40398706.348                        1164.220          32.700  
J02  41442564.500                        -592.759          31.200    41440205.733                        -442.656          35.300  
J04  37860489.819                        1226.351          36.400    37858132.851                         915.781          41.800  
R07  22502228.022                        1594.019          33.700  
R09  19519495.425                        -295.754          42.800  
R22  22294951.817                        -714.450          16.200  
> 2022  2 15  1  0 13.4365794  0 35
C02  35924605.029                          10.089          41.600  
C03  36996749.499                           0.303          43.600  
C05  36417373.892                          -1.219          39.700  
C07  38354188.164                        1305.150          28.200  
C08  37592018.303                       -1131.731          31.700  
C09  38013941.712                        -642.245          35.000  
C10  38258292.051                        1186.250          28.200  
C11  24762200.401                       -1751.250          18.300  
C13  36668848.200                        -913.929          35.100  
C14  23611630.524                        1600.000          28.300  
C21  24649395.095                        -490.420          41.100  
C24  21880628.872                         661.522          32.200  
C25  24931676.375                        2976.880          25.100  
C26  22819089.889                       -2017.143          32.800  
C33  25579909.813                        1893.612          38.600  
C34  25337804.319                       -1727.094          30.600  
E03                                                                  28409630.138                         619.400          20.600  
E05                                                                  25697566.661                         284.050          26.700    25695662.679                         211.923          37.700  
E09                                                                  24254862.224                        -244.975          31.200    24252939.055                        -182.925          29.500  
E24                                                                  24766132.779                         935.026          43.500    24764213.208                         698.187          44.400  
E25                                                                  26098009.040                        2600.316          33.700    26096091.268                        1941.948          34.200  
E31                                                                  26612998.820                       -1151.900          29.100    26611072.953                        -860.083          35.900  
E36                                                                  24617726.518                       -1601.799          31.400    24615813.842                       -1196.206          36.700  
G01  22782195.930                        1610.642          33.700    22779832.366                        1202.713          29.600  
G10  22238626.035                       -1467.138          34.500    22236276.262                       -1095.581          37.900  
G21  22258605.104                         613.666          32.400  
G22  22896168.328                        -787.120          29.200  
G26  21447334.635                        1929.413          35.500    21444979.465                        1440.828          37.600  
G31  20713004.101                       -2088.650          26.000  
G32  23321295.019                        -831.643          33.500    23318935.353                        -620.986          31.800  
J01  40400760.351                        1561.121          32.900    40398408.480                        1165.796          33.000  
J02  41442686.641                        -590.703          31.100    41440317.681                        -441.222          35.500  
J04  37860260.903                        1228.338          35.900    37857898.838                         917.283          41.800  
R07  22501919.361                        1596.309          32.700  
R09  19519547.414                        -294.549          42.500  
> 2022  2 15  1  0 14.4365795  0 36
C01  40365305.208                          -2.850          28.600  
C02  35924631.822                          10.969          41.700  
C03  36996779.889                           1.082          43.600  
C05  36417404.582                          -0.511          39.800  
C07  38353977.821                        1303.600          28.400  
C08  37592265.743                       -1131.038          31.400  
C09  38014096.216                        -641.390          34.900  
C10  38258096.998                        1188.250          27.700  
C13  36669052.770                        -913.287          34.800  
C14  23611349.430                        1597.850          28.900  
C16  38594813.394                        -478.250          24.000  
C21  24651408.012                        -492.350          27.900  
C24  21882422.041                         661.737          48.700  
C25  24931139.558                        2977.601          24.000  
C26  22819505.812                       -2016.800          32.400  
C33  25579577.454                        1894.602          38.900  
C34  25338159.684                       -1726.041          30.700  
E03                                                                  28409544.209                         620.450          21.600  
E05                                                                  25697548.185                         285.300          27.800    25695638.207                         212.695          37.600  
E09                                                                  24254941.181                        -243.999          31.000    24253016.513                        -182.155          29.300  
E24                                                                  24765985.992                         935.480          43.700    24764065.521                         698.586          44.300  
E25                                                                  26097544.773                        2601.204          32.700    26095626.401                        1942.400          33.700  
E31                                                                  26613245.061                       -1151.473          29.700    26611322.492                        -859.732          35.900  
E36                                                                  24618064.496                       -1601.324          31.800    24616148.822                       -1195.749          36.600  
G01  22781925.628                        1610.836          33.300    22779557.567                        1203.180          29.800  
G10  22238934.333                       -1466.820          34.200    22236584.860                       -1095.321          37.500  
G21  22258515.577                         613.932          32.100  
G22  22896351.013                        -786.381          30.400  
G26  21446999.878                        1929.903          35.100    21444642.010                        1441.158          37.600  
G31  20713427.819                       -2088.800          25.900  
G32  23321485.199                        -830.699          33.700    23319123.434                        -620.387          31.900  
J01  40400497.545                        1561.942          33.500    40398142.375                        1166.391          33.300  
J02  41442818.661                        -589.974          31.500    41440459.894                        -440.555          34.800  
J04  37860050.260                        1229.058          35.600    37857695.390                         917.782          41.800  
R07  22501651.758                        1597.386          33.500  
R09  19519633.566                        -294.531          42.300  
> 2022  2 15  1  0 15.4365795  0 35
C02  35924628.905                          10.200          41.800  
C03  36996779.971                           0.139          43.700  
C05  36417403.165                           0.500          39.700  
C07  38353728.774                        1305.300          28.800  
C08  37592486.771                       -1132.122          31.500  
C09  38014219.212                        -642.282          35.400  
C10  38257869.536                        1184.550          27.700  
C13  36669228.230                        -914.402          35.100  
C14  23611040.425                        1598.711          29.300  
C16  38594907.610                        -478.850          24.000  
C21  24649612.936                        -490.996          41.100  
C24  21880403.920                         660.215          32.300  
C25  24930566.137                        2976.458          25.600  
C26  22818004.532                       -2018.158          30.600  
C33  25579214.187                        1893.786          38.400  
C34  25338495.233                       -1727.438          30.800  
E03                                                                  28409425.872                         619.950          21.600  
E05                                                                  25697491.905                         284.300          26.800    25695584.026                         212.157          37.600  
E09                                                                  24254983.832                        -244.678          30.900    24253063.062                        -182.716          29.400  
E24                                                                  24765807.996                         934.160          43.500    24763887.226                         697.641          44.200  
E25                                                                  26097050.796                        2600.089          33.000    26095130.925                        1941.677          34.000  
E31                                                                  26613461.292                       -1152.760          30.000    26611541.422                        -860.775          35.900  
E36                                                                  24618372.763                       -1602.460          31.200    24616453.792                       -1196.641          36.600  
G01  22781609.428                        1609.413          33.300    22779248.563                        1201.887          29.100  
G10  22239208.125                       -1468.211          34.500    22236864.347                       -1096.447          38.100  
G21  22258405.335                         612.536          31.400  
G22  22896500.091                        -787.013          29.500  
